Nosaukums,Reģistrācijas numurs,Juridiskais status,Vadītājs,Filiāļu skaits,Strukturvienību skaits,Veids,Tips,Faktiskais dibinātājs,Deklarētais dibinātājs,Adrese,Tālrunis,E-pasts,Novads/Pilsēta,Likvidēta,visc_kods,pasvaldiba,urban,valoda,lat,lng
"Privātā pirmsskolas izglītības iestāde ""BG Ķipars""",3401803033,Komercsabiedrības struktūrvienība,AINA KIELBICKA,0,0,Pirmsskolas izglītības iestāde,Pirmsskolas izglītības iestāde,"Sabiedrība ar ierobežotu atbildību ""BG ĶIPARS""","Sabiedrība ar ierobežotu atbildību ""BG ĶIPARS""","DZIRNAVU IELA 86/88 - 7, CENTRA RAJONS, RĪGA, LV-1050",67288005,bac.kipars@inbox.lv,Rīga,N,,,,,56.9509114,24.1235635
"""""""Anšpēteru"""" veselīgas ēdināšanas un servisa arodizglītības skola""",3333801469,Juridiskā vai fiziskā persona,,0,0,Profesionālās izglītības iestāde,Profesionālās pamatizglītības iestāde,"""Z/S """"Anšpēteri""""""","""Z/S """"Anšpēteri""""""","Dzirnavu 57, RĪGA, LV-1010",7612030,,Rīga,J,,,,,56.9559065,24.1185707
"""""""GOBEST Baltija Internacionāls"""" Komerckoledža""",3331800814,Juridiskā vai fiziskā persona,,0,0,Profesionālās izglītības iestāde,Profesionālās vidējās izglītības iestāde,"""SIA """"GOBEST Baltija Internacionāls""""""","""SIA """"GOBEST Baltija Internacionāls""""""","Keldiša 8-73, Faktiskā: Maskavas ielā 68, Rīga, LV-10, RĪGA, LV-1082",7204424,gobest@latnet.lv,Rīga,J,,,,,56.9477298,24.1906727
"""""""PCSK"""" APSARDZES SKOLA""",3360800461,Juridiskā vai fiziskā persona,,0,0,Pieaugušo neformālās izglītības iestāde,Pieaugušo izglītības iestāde,"""Sporta biedrība """"PCSK""""""","""Sporta biedrība """"PCSK""""""","Klijānu 4, RĪGA, LV-1013",7331485,,Rīga,J,,,,,56.9749327,24.1457178
"""1 1 A profesionālās tālākizglītības un pilnveides izglītības iestāde""",3360802102,Komercsabiedrības struktūrvienība,,0,0,Profesionālās tālākizglītības un pilnveides izglītības iestāde,Profesionālās tālākizglītības un pilnveides izglītības iestāde,"Sabiedrība ar ierobežotu atbildību ""Dialogs AB""","Sabiedrība ar ierobežotu atbildību ""Dialogs AB""","MURJĀŅU IELA 1a, RĪGA, LV-1024",29408456,info@dialogs-ab.lv,Rīga,N,,,,,56.9867583,24.2326829
"""1A FORTŪNA"" SIA",3360800733,Komercsabiedrība,ALEKSANDRS VOROBJOVS,0,0,Profesionālās tālākizglītības un pilnveides izglītības iestāde,Profesionālās tālākizglītības un pilnveides izglītības iestāde,Aleksandrs Vorobjovs,Aleksandrs Vorobjovs,"MERĶEĻA IELA 17/19 - 3, RĪGA, LV-1050",67221663,autoskolambr@inbox.lv,Rīga,N,,,,,56.94854,24.1193292
"""A.D.Streem"" mācību centrs",2760800906,Komercsabiedrības struktūrvienība,ALEKSANDRS DAVIDĀNS,0,0,Profesionālās tālākizglītības un pilnveides izglītības iestāde,Profesionālās tālākizglītības un pilnveides izglītības iestāde,"Sabiedrība ar ierobežotu atbildību ""A.D.Streem""","Sabiedrība ar ierobežotu atbildību ""A.D.Streem""","18. NOVEMBRA IELA 104a, DAUGAVPILS, LV-5404",65421001,adstreem@inbox.lv,Daugavpils,N,,,,,55.8740323,26.5467491
"""A/S """"Rīgas Drēbnieks"""" mācību centrs""",3660800034,Juridiskā vai fiziskā persona,,0,0,Pieaugušo neformālās izglītības iestāde,Pieaugušo izglītības iestāde,"""A/S """"Rīgas Drēbnieks""""""","""A/S """"Rīgas Drēbnieks""""""","Zilupes 7, RĪGA, LV-1019","7,11221E+13",,Rīga,J,,,,,56.9305903,24.1669381
"""A+"" valodu mācību centrs",1760800639,Juridiskā vai fiziskā persona,,0,0,Profesionālās izglītības iestāde,Pieaugušo izglītības iestāde,"Sabiedrība ar ierobežotu atbildību ""AQUABLUES""","Sabiedrība ar ierobežotu atbildību ""AQUABLUES""","VIDZEMES IELA 4b, OGRE, OGRES NOVADS, LV-5001",67807404,elenavitz@inbox.lv,Ogres novads,J,,,,,56.7998486,24.6221719
"""Aija Fashion"" Modeļu skola un Stila studija",3332801319,Juridiskā vai fiziskā persona,,0,0,Profesionālās izglītības iestāde,Arodizglītības iestāde,"SIA ""AIJA FASHION""","SIA ""AIJA FASHION""","KRIŠJĀŅA VALDEMĀRA IELA 57/59, RĪGA, LV-1010",67044610,aija@aija.net,Rīga,J,,,,,56.9601103,24.1198733
"""ANGELIKA'S YERMAK EUROPEAN A.C.A.D.Y. OF NAIL ART"" mācību centrs",3360800626,Komercsabiedrības struktūrvienība,,0,0,Profesionālās tālākizglītības un pilnveides izglītības iestāde,Profesionālās tālākizglītības un pilnveides izglītības iestāde,"Sabiedrība ar ierobežotu atbildību ""ENINE""","Sabiedrība ar ierobežotu atbildību ""ENINE""","OJĀRA VĀCIEŠA IELA 28 - 1, RĪGA, LV-1004",67385509,enine.nail@mail.ru,Rīga,N,,,,,56.9235551,24.0751079
"""Anšpēteru"" veselīgas ēdināšanas un servisa arodizglītības skola",3330801469,Juridiskā vai fiziskā persona,,0,0,Profesionālās pamata un vidējās izglītības iestāde,Arodizglītības iestāde,"Zemnieku saimniecība ""Anšpēteri""","Zemnieku saimniecība ""Anšpēteri""","DZIRNAVU IELA 57, RĪGA, LV-1010",67612030,,Rīga,J,,,,,56.9559065,24.1185707
"""Artura Šulca Centrs""",3360800636,Biedrība,,0,0,Profesionālās tālākizglītības un pilnveides izglītības iestāde,Profesionālās tālākizglītības un pilnveides izglītības iestāde,"Arturs Šulcs, Ligita Margeviča","Arturs Šulcs, Ligita Margeviča","MELĪDAS IELA 6/1 - 3, RĪGA, LV-1015",26623152,,Rīga,N,,,,,0,Didn't find exactly one placemark! (Found 2)
"""ASAMBLEJA MKA"" Mācību un konsultāciju centrs",3360800510,Komercsabiedrības struktūrvienība,,0,0,Profesionālās tālākizglītības un pilnveides izglītības iestāde,Profesionālās tālākizglītības un pilnveides izglītības iestāde,"SIA ""ASAMBLEJA MKA""","SIA ""ASAMBLEJA MKA""","BRĪVĪBAS IELA 84 - 7, RĪGA, LV-1001",7312200,,Rīga,J,,,,,56.9591503,24.1277494
"""AVA Mācību Centrs""",3360800676,Komercsabiedrības struktūrvienība,,0,0,Profesionālās tālākizglītības un pilnveides izglītības iestāde,Profesionālās tālākizglītības un pilnveides izglītības iestāde,"SIA ""AVA MEDIA""","SIA ""AVA MEDIA""","STABU IELA 49 - 2, RĪGA, LV-1011",67299980,,Rīga,N,,,,,56.9548697,24.1319602
"""Baltijas Aviācijas skola""",4360801001,Komercsabiedrība,JEVGEŅIJS OBORINS,0,0,Profesionālās tālākizglītības un pilnveides izglītības iestāde,Profesionālās tālākizglītības un pilnveides izglītības iestāde,"SIA ""ANS""","SIA ""ANS""","Lidosta ""Rīga"", LIDOSTA ""RĪGA"", MĀRUPES NOVADS, LV-1053",67207891,antc@antc.lv,Mārupes novads,N,,,,,56.9229939,23.9892939
"""Bērnu attīstības centrs SADKO""",3351802733,Komercsabiedrība,,0,0,Bērnu un jauniešu interešu izglītības iestāde,Bērnu un jauniešu interešu izglītības iestāde,"SIA ""Bērnu attīstības centrs ""SADKO""""","SIA ""Bērnu attīstības centrs ""SADKO""""","TOMSONA IELA 9 - 9, RĪGA, LV-1010",26566661,simona-rjabina@inbox.lv,Rīga,N,,,,,56.9643192,24.1243627
"""BO SIA """"EVILĒNA"""" Mācību centrs""",3360800218,Juridiskā vai fiziskā persona,,0,0,Pieaugušo neformālās izglītības iestāde,Pieaugušo izglītības iestāde,"""BO SIA """"EVILĒNA""""""","""BO SIA """"EVILĒNA""""""","Purvciema 38, RĪGA, LV-1035",9406275,,Rīga,J,,,,,56.9536125,24.1817228
"""BO SIA """"Internationaler Bund """"Valodu un sociālās pedagoģijas institūts""""""""""",3360800195,Juridiskā vai fiziskā persona,,0,0,Pieaugušo neformālās izglītības iestāde,Pieaugušo izglītības iestāde,,,"Peitavas 41194, RĪGA, LV-1050",,,Rīga,J,,,,,56.9459542,24.1104517
"""BO SIA """"Latvijas Universitātes Medicīniskās pēcdiploma izglītības institūts""""""",3360800166,Juridiskā vai fiziskā persona,,0,0,Pieaugušo neformālās izglītības iestāde,Pieaugušo izglītības iestāde,"""Latvijas Universitāte; Latvijas ārstu biedrība; Rīgas 1.slimnīca; A/S Latvijas Jūras medicīnas centrs""","""Latvijas Universitāte; Latvijas ārstu biedrība; Rīgas 1.slimnīca; A/S Latvijas Jūras medicīnas centrs""","Skolas 1a, RĪGA, LV-1010",7240368,lpaskci@latnet.lv,Rīga,J,,,,,56.9560572,24.1154163
"""BO SIA """"Neatliekamās medicīniskās palīdzības centrs""""""",0560800161,Juridiskā vai fiziskā persona,,0,0,Pieaugušo neformālās izglītības iestāde,Pieaugušo izglītības iestāde,"V.Bērzkalne, M.Krieviņš, M.Kumsārs","V.Bērzkalne, M.Krieviņš, M.Kumsārs","MAZĀ LENČU IELA 1, CĒSIS, CĒSU NOVADS, LV-4101",7320241,,Cēsu novads,J,,,,,57.3208899,25.2596306
"""BO SIA """"Nekustamā īpašuma mācību atbalsta centrs""""""",3360800098,Juridiskā vai fiziskā persona,,0,0,Pieaugušo neformālās izglītības iestāde,Pieaugušo izglītības iestāde,,,"RĪGA, LV-",,,Rīga,J,,,,,56.9496487,24.1051864
"""BO SIA """"Ogres arodģimnāzija""""""",1731101460,Valsts,,0,0,Profesionālās izglītības iestāde,Profesionālās vidējās izglītības iestāde,"Latvijas Republika Zemkopības ministrijas personā, Ogres pilsētas dome","Latvijas Republika Zemkopības ministrijas personā, Ogres pilsētas dome","UPES PROSPEKTS 16, OGRE, OGRES NOVADS, LV-5000",5024479,ag1@ogre.apollo.lv,Ogres novads,J,,,,,56.8188848,24.5984545
"""BO valsts SIA """"Barkavas arodvidusskola""""""",1631100718,Valsts,,0,0,Profesionālās izglītības iestāde,Profesionālās vidējās izglītības iestāde,LR Ministru kabinets,LR Ministru kabinets,"DZIRNAVU IELA 1, BARKAVA, BARKAVAS PAGASTS, MADONAS NOVADS, LV-4834",4836501,,Madonas novads,J,,,,,56.7270449,26.6116029
"""BO VSIA """"Koledža RRC""""""",2934202227,Valsts,,0,0,Profesionālās izglītības iestāde,Koledža,Labklājības ministrija,Labklājības ministrija,"Slokas 68, JŪRMALA, LV-2015","""7769890; 7811704""",rrc@parks.lv,Jūrmala,J,,,,,56.9550337,23.7702112
"""BOVAS """"P.Stradiņa klīniskā universitātes slimnīca""""""",3360200148,Valsts,,0,0,Pieaugušo neformālās izglītības iestāde,Pieaugušo izglītības iestāde,Labklājības ministrija,Labklājības ministrija,"Pilsoņu 13, RĪGA, LV-1002",7069601,stradini@apollo.lv,Rīga,J,,,,,56.9328855,24.068306
"""BOVSIA """"Ērgļu arodvidusskola""""""",1631100811,Valsts,,0,0,Profesionālās izglītības iestāde,Profesionālās vidējās izglītības iestāde,LR Ministru kabinets,LR Ministru kabinets,"OŠKALNA IELA 10, ĒRGĻI, ĒRGĻU PAGASTS, ĒRGĻU NOVADS, LV-4840",4871235,eav@madona.lv,Ērgļu novads,J,,,,,56.9039083,25.6450375
"""Dagdas pilsētas pirmsskolas izglītības iestāde """"Mazulītis""""""",1101900586,Pašvaldība,,0,0,Pirmsskolas izglītības iestāde,Pirmsskolas izglītības iestāde,Dagdas pilsētas Dome,Dagdas pilsētas Dome,"LĀČPLĒŠA IELA 2, DAGDA, DAGDAS NOVADS, LV-5674",5653274,,Dagdas novads,J,,,,,56.0941829,27.5407196
"""Daugavpils pilsētas privātā pirmsskolas izglītības iestāde""""Bebītis""""""",2701801883,Juridiskā vai fiziskā persona,,0,0,Pirmsskolas izglītības iestāde,Pirmsskolas izglītības iestāde,Žanna Ostapko,Žanna Ostapko,"18.Novembra 319v-39, DAUGAVPILS, LV-5413",5437497,,Daugavpils,J,,,,,55.8934262,26.5980713
"""DROISKA UN SILIŅA"" MĀCĪBU CENTRS",3360800770,Komercsabiedrības struktūrvienība,,0,0,Profesionālās tālākizglītības un pilnveides izglītības iestāde,Profesionālās tālākizglītības un pilnveides izglītības iestāde,"Sabiedrība ar ierobežotu atbildību ""Droiska un Siliņa""","Sabiedrība ar ierobežotu atbildību ""Droiska un Siliņa""","RAUNAS IELA 26 - 7, RĪGA, LV-1039",67377370,info@droiskaunsilina.lv,Rīga,N,,,,,0,Didn't find exactly one placemark! (Found 2)
"""Eksperimentālā kristīgā pamatskola """"Staburadze""""""",2012802366,Juridiskā vai fiziskā persona,,0,0,Vispārējās izglītības iestāde,Vispārizglītojošā pamatskola,"""SIA """"Rūķītis""""""","""SIA """"Rūķītis""""""","SALAS PAGASTS, SALAS NOVADS, LV-2105","""7934172; 9804435""",brinums@latnet.lv,Salas novads,J,,,,,0,Didn't find exactly one placemark! (Found 4)
"""Engures pagasta pirmsskolas izglītības iestāde """"Spārīte""""""",2301900401,Pašvaldība,,0,0,Pirmsskolas izglītības iestāde,Pirmsskolas izglītības iestāde,"""Engures ciema zvejnieku kolhozs """"Padomju zvejnieks""""""","""Engures ciema zvejnieku kolhozs """"Padomju zvejnieks""""""","SKOLAS IELA 10, ENGURE, ENGURES PAGASTS, ENGURES NOVADS, LV-3113",3161637,,Engures novads,J,,,,,57.1634013,23.220064
"""Firma ED"" SIA",4560800828,Komercsabiedrība,IRĒNA KALNIŅA,0,0,Profesionālās tālākizglītības un pilnveides izglītības iestāde,Profesionālās tālākizglītības un pilnveides izglītības iestāde,Irēna Kalniņa,Irēna Kalniņa,"KALNA IELA 7, BAUSKA, BAUSKAS NOVADS, LV-3901",63963131,firmaed@inbox.lv,Bauskas novads,N,,,,,56.4080526,24.1874117
"""Fitnesa instruktoru Profesionālās izglītības Mācību centrs""",3360800865,Komercsabiedrības struktūrvienība,ZANDA PĻAVIŅA,0,0,Profesionālās tālākizglītības un pilnveides izglītības iestāde,Profesionālās tālākizglītības un pilnveides izglītības iestāde,"SIA ""STEPIN""","SIA ""STEPIN""","STABU IELA 14, RĪGA, LV-1011",67289567,astep@inbox.lv,Rīga,N,,,,,56.9577876,24.1249657
"""Fitnesa Mācību Centrs""",2760801002,Komercsabiedrības struktūrvienība,ANITA GERIŅA,0,0,Profesionālās tālākizglītības un pilnveides izglītības iestāde,Profesionālās tālākizglītības un pilnveides izglītības iestāde,"SIA ""SPORT""","SIA ""SPORT""","KRIMULDAS IELA 52, DAUGAVPILS, LV-5417",27524401,,Daugavpils,N,,,,,55.9157227,26.5781642
"""Gan bei restorānu servisa mācību centrs""",3360800662,Komercsabiedrības struktūrvienība,,0,0,Profesionālās tālākizglītības un pilnveides izglītības iestāde,Profesionālās tālākizglītības un pilnveides izglītības iestāde,"Sabiedrība ar ierobežotu atbildību ""Lage Ko""","Sabiedrība ar ierobežotu atbildību ""Lage Ko""","PĒRNAVAS IELA 86, RĪGA, LV-1009",26439494,,Rīga,N,,,,,56.9491131,24.153886
"""HOTEL SCHOOL"" Viesnīcu biznesa koledža",3347802926,Komercsabiedrība,IRINA ZIMŅIKOVA,0,0,Augstākās izglītības iestāde,Koledža,"Jūlija Pasnaka, Larisa Bernāne","Jūlija Pasnaka, Larisa Bernāne","SMILŠU IELA 3, RĪGA, LV-1050",67213037,info@hotelschool.lv,Rīga,N,,,,,56.9505808,24.1078115
"""IK """"Mācību konsultatīvais centrs VEIKSME""""""",3360800182,Juridiskā vai fiziskā persona,,0,0,Pieaugušo neformālās izglītības iestāde,Pieaugušo izglītības iestāde,Irina Haritončenko,Irina Haritončenko,"Krimuldas 2, RĪGA, LV-1039","""7526376; 6397275""",veiksme_mk@hotmail.com,Rīga,J,,,,,56.9712452,24.1566913
"""Integrētais apmācības centrs """"Doma""""""",2513800384,Juridiskā vai fiziskā persona,,0,0,Vispārējās izglītības iestāde,Vispārizglītojošā vidusskola,Guna Hofmane,Guna Hofmane,"SKOLAS IELA 11, MATĪŠI, MATĪŠU PAGASTS, BURTNIEKU NOVADS, LV-4210",4254547,,Burtnieku novads,J,,,,,57.695934,25.1580218
"""IU """"Bungas intelektuālās attīstības centrs""""""",3360800189,Juridiskā vai fiziskā persona,,0,0,Pieaugušo neformālās izglītības iestāde,Pieaugušo izglītības iestāde,Diāna Bunga,Diāna Bunga,"Krišjāņa Barona 122-20, RĪGA, LV-1012",7845145,diana_a@tvnet.lv,Rīga,J,,,,,56.9632092,24.1456227
"""Jauno psiholoģiju centrs""",3360800397,Biedrības struktūrvienība,LAURA GRĪNBERGA,0,0,Profesionālās tālākizglītības un pilnveides izglītības iestāde,Profesionālās tālākizglītības un pilnveides izglītības iestāde,"Biedrība ""Anima""","Biedrība ""Anima""","ATLANTIJAS IELA 79, RĪGA, LV-1015",29481150,,Rīga,N,,,,,57.0468054,24.0936188
"""Jelgavas I.Tomašūnas individuālais uzņēmums """"Psiholoģijas centrs""""""",2803802234,Juridiskā vai fiziskā persona,,0,0,Pirmsskolas izglītības iestāde,Pirmsskolas izglītības konsultatīvais centrs,Ilze Tomašūna,Ilze Tomašūna,"Ūdensvada 2, JELGAVA, LV-3002","""3026815; 3080939""",,Jelgava,J,,,,,56.6535188,23.7587387
"""Jelgavas pilsētas pirmsskolas izglītības iestāde """"Dzintariņš""""""",2801900527,Pašvaldība,,0,0,Pirmsskolas izglītības iestāde,Pirmsskolas izglītības iestāde,Jelgavas pilsētas Tautas deputātu padomes izpildu komiteja,Jelgavas pilsētas Tautas deputātu padomes izpildu komiteja,"Ganību 66, JELGAVA, LV-3007",3045007,,Jelgava,J,,,,,56.6579631,23.6963099
"""Jelgavas pilsētas pirmsskolas izglītības iestāde """"Varavīksne""""""",2801900528,Pašvaldība,,0,0,Pirmsskolas izglītības iestāde,Pirmsskolas izglītības iestāde,Valsts akciju sabiedrība RAF,Valsts akciju sabiedrība RAF,"Pērnavas 24, JELGAVA, LV-3004",3011738,,Jelgava,J,,,,,56.6688655,23.7477413
"""Jūrmalas pilsētas pamatskola """"Zvaniņš""""""",2912901381,Pašvaldība,,0,0,Vispārējās izglītības iestāde,Vispārizglītojošā pamatskola,Jūrmalas pilsētas Dome,Jūrmalas pilsētas Dome,"Talsu Šoseja 31 korp.2, JŪRMALA, LV-2016",7736011,,Jūrmala,J,,,,,56.9607424,23.5948911
"""Kalsnavas pagasta pirmsskolas izglītības iestāde """"Dzirkstīte""""""",1601901767,Pašvaldība,,0,0,Pirmsskolas izglītības iestāde,Pirmsskolas izglītības iestāde,Kalsnavas pagasta Padome,Kalsnavas pagasta Padome,"KALSNAVAS PAGASTS, MADONAS NOVADS, LV-4860","4,84249E+13",ZAET@energo.lv,Madonas novads,J,,,,,56.728918,25.9012406
"""Kastuļinas pagasta pirmsskolas izglītības iestāde """"Priedīte""""""",1101900588,Pašvaldība,,0,0,Pirmsskolas izglītības iestāde,Pirmsskolas izglītības iestāde,Kastuļinas pagasta Padome,Kastuļinas pagasta Padome,"KASTUĻINAS PAGASTS, AGLONAS NOVADS, LV-5685",5657225,,Aglonas novads,J,,,,,56.152619,27.1987369
"""Koledža """"BUTS""""""",3334801358,Juridiskā vai fiziskā persona,,0,0,Profesionālās izglītības iestāde,Koledža,"""SIA """"BUTS""""""","""SIA """"BUTS""""""","Lāčplēša 125, RĪGA, LV-1003",7141062,buts@buts.lv,Rīga,J,,,,,56.9437924,24.1324963
"""Komplekss Citadele"" SIA Profesionālo Studiju Skola ""Citadele""",3060800104,Komercsabiedrības struktūrvienība,JOLANTA ZĀLMANSONE,0,0,Profesionālās tālākizglītības un pilnveides izglītības iestāde,Profesionālās tālākizglītības un pilnveides izglītības iestāde,"""Komplekss Citadele"" SIA","""Komplekss Citadele"" SIA","GRAUDU IELA 40 - 1, LIEPĀJA, LV-3401","63428855, 29138211",skola@komplekss-citadele.lv,Liepāja,N,,,,,56.5096489,21.0068732
"""Komunikāciju izglītības aģentūra ""Puzzle""""",4360800631,Komercsabiedrības struktūrvienība,,0,0,Profesionālās tālākizglītības un pilnveides izglītības iestāde,Profesionālās tālākizglītības un pilnveides izglītības iestāde,"Sabiedrība ar ierobežotu atbildību ""KOMUNIKĀCIJU AĢENTŪRA ""PUZZLE""""","Sabiedrība ar ierobežotu atbildību ""KOMUNIKĀCIJU AĢENTŪRA ""PUZZLE""""","KRASTA IELA 7, OGRE, OGRES NOVADS, LV-5001",26165308,seminari@puzzle.lv,Ogres novads,N,,,,,56.8159388,24.611283
"""Krāslavas pilsētas pirmsskolas izglītības iestāde """"Zvaniņš""""""",1101900583,Pašvaldība,,0,0,Pirmsskolas izglītības iestāde,Pirmsskolas izglītības iestāde,Krāslavas pilsētas Dome,Krāslavas pilsētas Dome,"RĒZEKNES IELA 4, KRĀSLAVA, KRĀSLAVAS NOVADS, LV-5601",5621484,,Krāslavas novads,J,,,,,55.8974797,27.1737683
"""Kristīgā pamatskola """"Liepājas Pulss""""""",3012800406,Juridiskā vai fiziskā persona,,0,0,Vispārējās izglītības iestāde,Vispārizglītojošā pamatskola,Dzintra Pūķe,Dzintra Pūķe,"Krūmu 41/43, LIEPĀJA, LV-3416",3439147,,Liepāja,J,,,,,0,Didn't find exactly one placemark! (Found 2)
"""Kuldīgas pilsētas pirmsskolas izglītības iestāde """"Pienenīte""""""",1201901426,Pašvaldība,,0,0,Pirmsskolas izglītības iestāde,Pirmsskolas izglītības iestāde,Kuldīgas pilsētas Dome,Kuldīgas pilsētas Dome,"DZIRNAVU IELA 9, ĪVANDE, KULDĪGA, KULDĪGAS NOVADS, LV-3301",3322545,,Kuldīgas novads,J,,,,,56.9688139,21.9615079
"""Lat.Guard"" Mācību centrs",3360800223,Juridiskā vai fiziskā persona,,0,0,Profesionālās tālākizglītības un pilnveides izglītības iestāde,Profesionālās tālākizglītības un pilnveides izglītības iestāde,,,,,,,J,,,,,0,The geocode was successful but returned no results. This may occur if the geocode was passed a non-existent address or a latlng in a remote location.
"""Latgales profesionālās izglītības centrs""",3160800885,Komercsabiedrības struktūrvienība,IĻJA KLIMANOVS,0,0,Profesionālās tālākizglītības un pilnveides izglītības iestāde,Profesionālās tālākizglītības un pilnveides izglītības iestāde,"Sabiedrība ar ierobežotu atbildību ""Latgales profesionālās izglītības centrs""","Sabiedrība ar ierobežotu atbildību ""Latgales profesionālās izglītības centrs""","SKOLAS IELA 13 - 4, RĒZEKNE, LV-4601",27657875,lpic@inbox.lv,Rēzekne,N,,,,,0,Didn't find exactly one placemark! (Found 2)
"""Latvijas Nacionālā sporta skola""""""",3370002468,Valsts,,0,0,Profesionālās ievirzes izglītības iestāde,Sporta skola,Izglītības un zinātnes ministrija,Izglītības un zinātnes ministrija,"Augšiela 1, RĪGA, LV-1009",7294720,Inss@latnet.lv,Rīga,J,,,,,56.9537175,24.1573082
"""Latvijas Pašvaldību mācību centrs""",3360800184,Biedrība,,0,0,Profesionālās tālākizglītības un pilnveides izglītības iestāde,Profesionālās tālākizglītības un pilnveides izglītības iestāde,"Rīgas Dome, Valmieras pilsētas pašvaldība, Jūrmalas pilsētas Dome, Liepājas pilsētas Dome, Ventspils pilsētas Dome, Madonas novada pašvaldība, Alūksnes novada Dome, Latvijas Pašvaldību savienība, Bauskas novada pašvaldība, Jaunpils novada pašvaldība, Ogres novada Dome, Pāvilostas novada pašvaldība, Strenču novada pašvaldība, Talsu novada pašvaldība","Rīgas Dome, Jūrmalas pilsētas Dome, Liepājas pilsētas Dome, Ogres novada Dome, Ventspils pilsētas Dome, Valmieras pilsētas Dome, Pāvilostas novada Dome, Talsu novada Dome, Madonas novada Dome, Jaunpils novada Dome, Strenču novada Dome, Bauskas novada Dome, Alūksnes novada Dome, Latvijas Pašvaldību savienība","BIĶERNIEKU IELA 4, RĪGA, LV-1039",67551217,lpmc@lpmc.lv,Rīga,N,,,,,56.9721329,24.1716637
"""Latvijas poļu savienības Jelgavas nodaļas pirmsskolas izglītības iestāde """"Sloviček""""""",2801802230,Juridiskā vai fiziskā persona,,0,0,Pirmsskolas izglītības iestāde,Pirmsskolas izglītības iestāde,Latvijas poļu savienības Jelgavas nodaļa,Latvijas poļu savienības Jelgavas nodaļa,"Aspazijas 19, JELGAVA, LV-3001",3030076,,Jelgava,J,,,,,56.6478904,23.6946336
"""Latvijas Treneru tālākizglītības centrs""",3360800313,Biedrība,,0,0,Profesionālās tālākizglītības un pilnveides izglītības iestāde,Profesionālās tālākizglītības un pilnveides izglītības iestāde,"Biedrība Latvijas Sporta federāciju padome, Latvijas Sporta pedagoģijas akadēmija, Biedrība Latvijas Olimpiskā akadēmija","Biedrība Latvijas Sporta federāciju padome, Latvijas Sporta pedagoģijas akadēmija, Biedrība Latvijas Olimpiskā akadēmija","BRĪVĪBAS GATVE 333, RĪGA, LV-1006",67556734,nils.grasis@treneruizglitiba.lv,Rīga,N,,,,,56.9854114,24.2067248
"""Lietišķās kinezioloģijas skola""",3360801028,Komercsabiedrības struktūrvienība,VALĒRIJS KUDOJARS,0,0,Profesionālās tālākizglītības un pilnveides izglītības iestāde,Profesionālās tālākizglītības un pilnveides izglītības iestāde,"Sabiedrība ar ierobežotu atbildību ""Medicīnas un izglītības centrs ""VOKS""""","Sabiedrība ar ierobežotu atbildību ""Medicīnas un izglītības centrs ""VOKS""""","KRIŠJĀŅA VALDEMĀRA IELA 118, RĪGA, LV-1013",67360760,info@voks.lv,Rīga,N,,,,,56.9756168,24.1364917
"""Ludzas rajona zinību centrs""",1560800135,Biedrības struktūrvienība,,0,0,Profesionālās tālākizglītības un pilnveides izglītības iestāde,Profesionālās tālākizglītības un pilnveides izglītības iestāde,"Biedrība ""Ludzas rajona zinību centrs""","Biedrība ""Ludzas rajona zinību centrs""","RAIŅA IELA 16, LUDZA, LUDZAS NOVADS, LV-5701",29413335,"sandra.palma@ludza.lv, zalas@apollo.lv",Ludzas novads,N,,,,,56.5438414,27.7216809
"""LUMA mācību centrs""",3360800513,Komercsabiedrības struktūrvienība,,0,0,Profesionālās tālākizglītības un pilnveides izglītības iestāde,Profesionālās tālākizglītības un pilnveides izglītības iestāde,Sabiedrība ar ierobežotu atbildību „Latvijas Uzņēmējdarbības un menedžmenta akadēmija”,Sabiedrība ar ierobežotu atbildību „Latvijas Uzņēmējdarbības un menedžmenta akadēmija”,"SALASPILS IELA 14 - 212, RĪGA, LV-1057",67261182,luma@luma.lv,Rīga,N,,,,,56.9186041,24.181257
"""Mācību - konsultatīvais centrs """"Vidzeme""""""",3360800084,Juridiskā vai fiziskā persona,,0,0,Pieaugušo neformālās izglītības iestāde,Pieaugušo izglītības iestāde,"""Apmācības, kultūras un atpūtas SIA """"Vidzeme""""""","""Apmācības, kultūras un atpūtas SIA """"Vidzeme""""""","Stabu 63, RĪGA, LV-1011",7560239,vidzeme@vidzeme.lv,Rīga,J,,,,,56.953105,24.1356203
"""Mācību centrs """"European School of Management""""""",3360800386,Juridiskā vai fiziskā persona,,0,0,Pieaugušo neformālās izglītības iestāde,Pieaugušo izglītības iestāde,"""SIA """"European School of Management""""""","""SIA """"European School of Management""""""","Skolas 41255, RĪGA, LV-1010",6331470,eurosom@hotmail.com,Rīga,J,,,,,56.95776,24.1186499
"""Mācību centrs """"IEC Datoru kursi""""""",3360800412,Juridiskā vai fiziskā persona,,0,0,Pieaugušo neformālās izglītības iestāde,Pieaugušo izglītības iestāde,"""SO """"Starptautiskās apmaiņas centrs""""""","""SO """"Starptautiskās apmaiņas centrs""""""","Republikuas laukums 2, RĪGA, LV-1010",7228228,Eduards@iec.lv,Rīga,J,,,,,56.9543518,24.0993715
"""Mācību centrs """"TEKSA Income""""""",3360800188,Juridiskā vai fiziskā persona,,0,0,Pieaugušo neformālās izglītības iestāde,Pieaugušo izglītības iestāde,"""SIA """"BIZNESS INCOME""""""","""SIA """"BIZNESS INCOME""""""","Dzirnavu 83/85, RĪGA, LV-1011",7285177,,Rīga,J,,,,,0,Didn't find exactly one placemark! (Found 2)
"""Mācību centrs """"TeleTRADE""""""",3360800598,Juridiskā vai fiziskā persona,,0,0,Pieaugušo neformālās izglītības iestāde,Pieaugušo izglītības iestāde,"""Sabiedrība ar ierobežotu atbildību """"INKOBALT""""""","""Sabiedrība ar ierobežotu atbildību """"INKOBALT""""""","Merķeļa 40972, RĪGA, LV-1050",+371 6 7350148,info@teletrade.lv,Rīga,J,,,,,56.95071,24.1172799
"""Mācību centrs Demarsch""",3360800762,Komercsabiedrības struktūrvienība,,0,0,Profesionālās tālākizglītības un pilnveides izglītības iestāde,Profesionālās tālākizglītības un pilnveides izglītības iestāde,"Sabiedrība ar ierobežotu atbildību ""DEMARSCH""","Sabiedrība ar ierobežotu atbildību ""DEMARSCH""","TOMSONA IELA 42 - 7, RĪGA, LV-1013",67374113,info@demarsch.lv,Rīga,N,,,,,56.9687154,24.1300847
"""Mācību centrs Jatlars""",3060800620,Juridiskā vai fiziskā persona,,0,0,Profesionālās izglītības iestāde,Pieaugušo izglītības iestāde,"SIA ""Jatlars""","SIA ""Jatlars""","PELDU IELA 5, LIEPĀJA, LV-3404",63424113,jatlars.apsardze@inbox.lv,Liepāja,J,,,,,56.5053667,21.010088
"""Mācību centrs Liepa""",3360800447,Komercsabiedrības struktūrvienība,,0,0,Profesionālās tālākizglītības un pilnveides izglītības iestāde,Profesionālās tālākizglītības un pilnveides izglītības iestāde,"SIA ""Mācību centrs Liepa""","SIA ""Mācību centrs Liepa""","MASKAVAS IELA 58b, RĪGA, LV-1003",67552522,liepamc@inbox.lv,Rīga,N,,,,,56.93975,24.1262047
"""Mācību centrs Livonija""",3160800856,Biedrības struktūrvienība,IĻJA KLIMANOVS,0,0,Profesionālās tālākizglītības un pilnveides izglītības iestāde,Profesionālās tālākizglītības un pilnveides izglītības iestāde,"Biedrība ""Izglītības un sociāla atbalsta centrs ""Livonija""""","Biedrība ""Izglītības un sociāla atbalsta centrs ""Livonija""""","ATBRĪVOŠANAS ALEJA 120 - 1, RĒZEKNE, LV-4601",26179314,mclivonija@inbox.lv,Rēzekne,N,,,,,56.5108518,27.3339205
"""MĀCĪBU CENTRS"" SIA",2560800035,Komercsabiedrība,,0,0,Profesionālās tālākizglītības un pilnveides izglītības iestāde,Profesionālās tālākizglītības un pilnveides izglītības iestāde,Anita Bedrīte,Anita Bedrīte,"CĒSU IELA 20, VALMIERA, LV-4201",64223559  29426161,,Valmiera,N,,,,,57.5316533,25.4234999
"""Mācību un attīstības centrs SIA """"Sīriuss un partneri""""""",3360800133,Juridiskā vai fiziskā persona,,0,0,Pieaugušo neformālās izglītības iestāde,Pieaugušo izglītības iestāde,Laila Kokina,Laila Kokina,"Pulkveža Brieža 4, RĪGA, LV-1010",7334305,,Rīga,J,,,,,56.9591506,24.1058444
"""Mācību un pāraudzināšanas iestāde """"Pilcene""""""",1918002020,Valsts,,0,0,Vispārējās izglītības iestāde,Sociālās korekcijas iestāde,Izglītības un zinātnes ministrija,Izglītības un zinātnes ministrija,"DRICĀNU PAGASTS, RĒZEKNES NOVADS, LV-4615",6515256,,Rēzeknes novads,J,,,,,56.6613789,27.1987067
"""MAXIMA Latvija mācību centrs""",2060800370,Komercsabiedrības struktūrvienība,,0,0,Profesionālās tālākizglītības un pilnveides izglītības iestāde,Profesionālās tālākizglītības un pilnveides izglītības iestāde,"""MAXIMA Latvija""SIA","""MAXIMA Latvija""SIA","""Abras"", ĶEKAVAS PAGASTS, ĶEKAVAS NOVADS, LV-2111",29808324,marite.seile@maxima.lv,Ķekavas novads,N,,,,,56.8674054,24.1592037
"""Mērdzenes pagasta pirmsskolas izglītības iestāde """"Saulīte""""""",1501900486,Pašvaldība,,0,0,Pirmsskolas izglītības iestāde,Pirmsskolas izglītības iestāde,Mērdzenes pagasta Padome,Mērdzenes pagasta Padome,"MĒRDZENES PAGASTS, KĀRSAVAS NOVADS, LV-5726",5752298,,Kārsavas novads,J,,,,,56.6958066,27.7681002
"""Modes dizaina apmācības studija """"KIRE""""""",3560800027,Juridiskā vai fiziskā persona,,0,0,Pieaugušo neformālās izglītības iestāde,Pieaugušo izglītības iestāde,"""SIA """"KIRE""""""","""SIA """"KIRE""""""","Kurzemes Prospekts 94-17, RĪGA, LV-1069",9242703,karinaa@navigators.lv,Rīga,J,,,,,56.9688091,24.014112
"""Modes skola """"ANISOLS""""""",3332800312,Juridiskā vai fiziskā persona,,0,0,Profesionālās izglītības iestāde,Arodizglītības iestāde,"""SIA """"ANISOLS""""""","""SIA """"ANISOLS""""""","Kalnu 4, RĪGA, LV-1003",7112912,,Rīga,J,,,,,56.9419079,24.1423549
"""Narmadas tautskola""",4460800777,Biedrības struktūrvienība,,0,0,Profesionālās tālākizglītības un pilnveides izglītības iestāde,Profesionālās tālākizglītības un pilnveides izglītības iestāde,"""Straupes pilsētas atdzimšanas biedrība""","""Straupes pilsētas atdzimšanas biedrība""","""Valdaines"", STRAUPES PAGASTS, PĀRGAUJAS NOVADS, LV-4152",29469477,straupespab@inbox.lv,Pārgaujas novads,N,,,,,57.3188343,24.9629335
"""Nodibinājums Kinoskola""",3360800821,Nodibinājums,INĀRA SLUCKA,0,0,Profesionālās tālākizglītības un pilnveides izglītības iestāde,Profesionālās tālākizglītības un pilnveides izglītības iestāde,"Ināra Slucka, Dita Rietuma","Ināra Slucka, Dita Rietuma","MIERA IELA 91 - 4, RĪGA, LV-1013",29228009,kinoskola@inbox.lv,Rīga,N,,,,,56.9730691,24.1413515
"""NRC """"Vaivari"""" vispārējā pirmsskolas izglītības iestāde""",2901802221,Juridiskā vai fiziskā persona,,0,0,Pirmsskolas izglītības iestāde,Pirmsskolas izglītības iestāde,"""BO VU Nacionālais rehabilitācijas centrs """"Vaivari""""""","""BO VU Nacionālais rehabilitācijas centrs """"Vaivari""""""","Asaru Prospekts 61, JŪRMALA, LV-2008",7766151,nrc2@mail.eunet.lv,Jūrmala,J,,,,,56.9590977,23.6677265
"""O.Vlasjukas individuālais uzņēmums komercfirma """"KAMIL""""""",3360800298,Juridiskā vai fiziskā persona,,0,0,Pieaugušo neformālās izglītības iestāde,Pieaugušo izglītības iestāde,Olga Vlasjuka,Olga Vlasjuka,"MĀRUPES PAGASTS, LV-2167",7217220,,Mārupes pagasts,J,,,,,0,Didn't find exactly one placemark! (Found 2)
"""OLISTA - MĀCĪBU CENTRS""",3360800454,Komercsabiedrības struktūrvienība,,0,0,Profesionālās tālākizglītības un pilnveides izglītības iestāde,Profesionālās tālākizglītības un pilnveides izglītības iestāde,"SIA ""OLISTA - DARBA AIZSARDZĪBAS CENTRS""","SIA ""OLISTA - DARBA AIZSARDZĪBAS CENTRS""","DAMMES IELA 8 - 67, RĪGA, LV-1067",29577228,allur@apollo.lv,Rīga,N,,,,,56.9624685,24.0134585
"""Pamatskola """"Māra""""""",3612801268,Juridiskā vai fiziskā persona,,0,0,Vispārējās izglītības iestāde,Vispārizglītojošā pamatskola,"""Rīgas pilsētas Latgales priekšpilsētas pašvaldības bezpeļņas uzņēmums - bērnu kultūras un izglītības centrs """"Māra""""""","""Rīgas pilsētas Latgales priekšpilsētas pašvaldības bezpeļņas uzņēmums - bērnu kultūras un izglītības centrs """"Māra""""""","Zebiekstes 1, RĪGA, LV-1082",2583736,,Rīga,J,,,,,56.9464886,24.187803
"""PĀRSLA-APSARDZE"" mācību centrs",3360800760,Komercsabiedrības struktūrvienība,,0,0,Profesionālās tālākizglītības un pilnveides izglītības iestāde,Profesionālās tālākizglītības un pilnveides izglītības iestāde,"Sabiedrība ar ierobežotu atbildību ""PĀRSLA-APSARDZE""","Sabiedrība ar ierobežotu atbildību ""PĀRSLA-APSARDZE""","MASKAVAS IELA 322d, RĪGA, LV-1063",67132571,apsardze@apollo.lv,Rīga,N,,,,,56.9035937,24.1923984
"""Pašaizsardzības apmācības centrs""",3360800853,Komercsabiedrības struktūrvienība,ANDREJS ŠIŠOVS,0,0,Profesionālās tālākizglītības un pilnveides izglītības iestāde,Profesionālās tālākizglītības un pilnveides izglītības iestāde,"Sabiedrība ar ierobežotu atbildību ""SIKS""","Sabiedrība ar ierobežotu atbildību ""SIKS""","DAUGAVGRĪVAS IELA 31, RĪGA, LV-1007",67592880,info@civiladrosiba.lv,Rīga,N,,,,,56.9536779,24.069997
"""Pieaugušo neformālās izglītības centrs MANI Group""",2960800802,Komercsabiedrības struktūrvienība,,0,0,Profesionālās tālākizglītības un pilnveides izglītības iestāde,Profesionālās tālākizglītības un pilnveides izglītības iestāde,"Sabiedrība ar ierobežotu atbildību ""MANI Group""","Sabiedrība ar ierobežotu atbildību ""MANI Group""","BULDURU PROSPEKTS 33, JŪRMALA, LV-2010",20220809,natalja@manigroup.lv,Jūrmala,N,,,,,56.9847689,23.8536842
"""Pirmsskolas konsulatīvais centrs """"Bērna attīstības centrs""""""",3803802403,Juridiskā vai fiziskā persona,,0,0,Pirmsskolas izglītības iestāde,Pirmsskolas izglītības konsultatīvais centrs,"""N.Baranskas individuālā uzņēmums """"NADĪNA"""" ""","""N.Baranskas individuālā uzņēmums """"NADĪNA"""" ""","Bauskas 88, RĪGA, LV-",9707723,,Rīga,J,,,,,56.9159282,24.1110621
"""Pirmsskolas konsultatīvais centrs """"Bērnu māja""""""",3503802382,Juridiskā vai fiziskā persona,,0,0,Pirmsskolas izglītības iestāde,Pirmsskolas izglītības konsultatīvais centrs,"""SO """"Marijas māja""""""","""SO """"Marijas māja""""""","Hāmaņa 7, RĪGA, LV-1007",7457008,bernu.maja@delfi.lv,Rīga,J,,,,,56.9511467,24.0671238
"""Pirmsskolas mācību centrs """"Bērnu sēta""""""",1501801003,Juridiskā vai fiziskā persona,,0,0,Pirmsskolas izglītības iestāde,Pirmsskolas izglītības iestāde,"""Z/s """"Apsītes""""""","""Z/s """"Apsītes""""""","PUŠMUCOVAS PAGASTS, CIBLAS NOVADS, LV-5742","""5752582; 9149339""",,Ciblas novads,J,,,,,56.6576138,27.7243326
"""Preiļu rajona SK """"Cerība""""""",1870902192,Pašvaldība,,0,0,Profesionālās ievirzes izglītības iestāde,Sporta skola,Preiļu rajona Padome,Preiļu rajona Padome,"AGLONAS IELA 24, PREIĻI, PREIĻU NOVADS, LV-5300",5322649,,Preiļu novads,J,,,,,56.2918059,26.7301986
"""Privātā krievu nacionālā pamatskola """"Podsolnuh""""""",3012800215,Juridiskā vai fiziskā persona,,0,0,Vispārējās izglītības iestāde,Vispārizglītojošā pamatskola,"""SO """"Liepājas saulespuķe""""""","""SO """"Liepājas saulespuķe""""""","Brīvzemnieka 28, LIEPĀJA, LV-3401",9661143,,Liepāja,J,,,,,56.5104893,21.0091166
"""Privātā pamatskola """"Laisma""""""",3612800150,Juridiskā vai fiziskā persona,,0,0,Vispārējās izglītības iestāde,Vispārizglītojošā pamatskola,"""SIA """"Laterna LA""""""","""SIA """"Laterna LA""""""","Prūšu 13a, RĪGA, LV-1057",7188590,laisma@mail.junik.lv,Rīga,J,,,,,56.9143409,24.1888565
"""Privātā pamatskola """"MAXVEL""""""",3712801420,Juridiskā vai fiziskā persona,,0,0,Vispārējās izglītības iestāde,Vispārizglītojošā pamatskola,Jeļena Ivanova,Jeļena Ivanova,"Dzelzavas 9, RĪGA, LV-1084",7564478,maxvel@mail.eunet.lv,Rīga,J,,,,,56.963814,24.1717242
"""Privātā pamatskola """"Norma""""""",3712801004,Juridiskā vai fiziskā persona,,0,0,Vispārējās izglītības iestāde,Vispārizglītojošā pamatskola,"""SIA """"LSA - KONTAKTS""""""","""SIA """"LSA - KONTAKTS""""""","Saktas 7, RĪGA, LV-1083",7246948,,Rīga,J,,,,,56.9564868,24.1725189
"""Privātā pamatskola """"Saulgrieži""""""",3612802488,Juridiskā vai fiziskā persona,,0,0,Vispārējās izglītības iestāde,Vispārizglītojošā pamatskola,"""SIA """"Maksima Plus""""""","""SIA """"Maksima Plus""""""","Prūšu 81, RĪGA, LV-1057",7187029,maksima_plus@delfi.lv,Rīga,J,,,,,56.9060536,24.2047755
"""Privātā pirmskolas izglītības iestāde """"Vinnijs""""""",2001802661,Juridiskā vai fiziskā persona,,0,0,Pirmsskolas izglītības iestāde,Pirmsskolas izglītības iestāde,"""SIA """"MANASS""""""","""SIA """"MANASS""""""","PRIEŽU IELA 3, BABĪTE, BABĪTES PAGASTS, BABĪTES NOVADS, LV-2101",67888123,ilze@bernudarzsvinnijs.lv,Babītes novads,J,,,,,56.9532132,23.9492141
"""Privātā pirmsskola """"Kolumbs""""""",3701802014,Juridiskā vai fiziskā persona,,0,0,Pirmsskolas izglītības iestāde,Pirmsskolas izglītības iestāde,"""BO SIA """"Patnis B""""""","""BO SIA """"Patnis B""""""","Biķernieku 33a, RĪGA, LV-1039",7560339,kolumb@e-apollo.lv,Rīga,J,,,,,56.9703077,24.1754968
"""Privātā pirmsskolas izglītības iestāde """"Saulīte un Mēs""""""",2301800979,Juridiskā vai fiziskā persona,,0,0,Pirmsskolas izglītības iestāde,Pirmsskolas izglītības iestāde,"""Ineta Čerpinska, I/u """"Saulīte un Mēs""""""","""Ineta Čerpinska, I/u """"Saulīte un Mēs""""""","ALEJAS IELA 5, TUKUMS, TUKUMA NOVADS, LV-3101",Nav,,Tukuma novads,J,,,,,56.9566945,23.1821115
"""Privātā sākumskola """"Alfa""""""",2811802342,Juridiskā vai fiziskā persona,,0,0,Vispārējās izglītības iestāde,Vispārizglītojošā sākumskola,SIA „Starptautiskais mācību centrs „Iesākums”,SIA „Starptautiskais mācību centrs „Iesākums”,"Jāņa 4, JELGAVA, LV-3001","""3010421; 9552336""",alfa.alfa@inbox.lv,Jelgava,J,,,,,56.6451912,23.7247133
"""Privātā sākumskola """"KOLUMBS""""""",3711801563,Juridiskā vai fiziskā persona,,0,0,Vispārējās izglītības iestāde,Vispārizglītojošā sākumskola,"""BO SIA """"Patnis B""""""","""BO SIA """"Patnis B""""""","Biķernieku 33a, RĪGA, LV-1039",2560339,,Rīga,J,,,,,56.9703077,24.1754968
"""Privātā vidusskola """"Gaismas tilts 97""""""",2013801012,Juridiskā vai fiziskā persona,,0,0,Vispārējās izglītības iestāde,Vispārizglītojošā pamatskola,"""SIA """"Gaismas tilts 97""""""","""SIA """"Gaismas tilts 97""""""","NĀKOTNES IELA 3, ĶEKAVA, ĶEKAVAS PAGASTS, ĶEKAVAS NOVADS, LV-2123",67937884,gt97@gt.97.lv,Ķekavas novads,J,,,,,56.8252949,24.2375631
"""Privātā vidusskola """"Taka""""""",3613801269,Juridiskā vai fiziskā persona,,0,0,Vispārējās izglītības iestāde,Vispārizglītojošā vidusskola,"""BO SIA """"Taka L""""""","""BO SIA """"Taka L""""""","Viļānu 13, RĪGA, LV-1003",7143730,,Rīga,J,,,,,56.9416498,24.1522446
"""Privātais profesionālās pilnveides izglītības mācību centrs """"BPC""""""",3360800252,Juridiskā vai fiziskā persona,,0,0,Pieaugušo neformālās izglītības iestāde,Pieaugušo izglītības iestāde,"""SIA """"Biroja pakalpojumu centrs""""""","""SIA """"Biroja pakalpojumu centrs""""""","Krišjāņa Valdemāra 1c, RĪGA, LV-1010",7286285,macibas@bpc.lv,Rīga,J,,,,,56.9529826,24.1039877
"""Privātsākumskola """"Elita""""""",2811800673,Juridiskā vai fiziskā persona,,0,0,Vispārējās izglītības iestāde,Vispārizglītojošā sākumskola,"""SIA """"Piroteks""""""","""SIA """"Piroteks""""""","Dārziņa Emīla 14, JELGAVA, LV-3008",9243494,,Jelgava,J,,,,,56.639667,23.7065397
"""Privātskola """"Stella""""""",3812800004,Juridiskā vai fiziskā persona,,0,0,Vispārējās izglītības iestāde,Vispārizglītojošā pamatskola,"""SIA """"Stella un Ko"""",""","""SIA """"Stella un Ko"""",""","Zolitūdes 44, RĪGA, LV-1029",2404492,,Rīga,J,,,,,56.944123,24.0058186
"""Privātskola """"Templum""""""",3512800707,Juridiskā vai fiziskā persona,,0,0,Vispārējās izglītības iestāde,Vispārizglītojošā pamatskola,"Ludmila Gruzdeva, Natālija Bogoslavskaja, Aleksandra Seņenko, Dina Strejeva","Ludmila Gruzdeva, Natālija Bogoslavskaja, Aleksandra Seņenko, Dina Strejeva","Meža 4, RĪGA, LV-1055",7619150,,Rīga,J,,,,,0,Didn't find exactly one placemark! (Found 8)
"""Privātskola """"Zinītis""""""",3212800041,Juridiskā vai fiziskā persona,,0,0,Vispārējās izglītības iestāde,Vispārizglītojošā pamatskola,"""SIA """"Zinītis""""""","""SIA """"Zinītis""""""","Katrīnas 4, VENTSPILS, LV-3600",8936039,,Ventspils,J,,,,,57.3959207,21.5698306
"""Privātvidusskola """"Brīvā attīstība""""""",3613800351,Juridiskā vai fiziskā persona,,0,0,Vispārējās izglītības iestāde,Vispārizglītojošā vidusskola,"V.Hodakovskis, R.Djakons, T.Hodakovska","V.Hodakovskis, R.Djakons, T.Hodakovska","Lomonosova 1, RĪGA, LV-1019","7,24152E+13",lyceum@lyceum.junik.lv,Rīga,J,,,,,56.9398772,24.1568017
"""Profesionālās izaugsmes un meistarības skola ALTER EGO""",2060800765,Komercsabiedrības struktūrvienība,,0,0,Profesionālās tālākizglītības un pilnveides izglītības iestāde,Profesionālās tālākizglītības un pilnveides izglītības iestāde,"Sabiedrība ar ierobežotu atbildību ""ALTER EGO""","Sabiedrība ar ierobežotu atbildību ""ALTER EGO""","ROŽU IELA 13, MĀRUPE, MĀRUPES NOVADS, LV-2167",29430550,alterego@alterego.lv,Mārupes novads,N,,,,,56.8946256,24.0414152
"""Profesionālās Pilnveides Mācību Centrs Atēna""",3360802023,Komercsabiedrības struktūrvienība,,0,0,Profesionālās tālākizglītības un pilnveides izglītības iestāde,Profesionālās tālākizglītības un pilnveides izglītības iestāde,"Sabiedrība ar ierobežotu atbildību ""Profesionālās Pilnveides Mācību Centrs Atēna""","Sabiedrība ar ierobežotu atbildību ""Profesionālās Pilnveides Mācību Centrs Atēna""","GANĪBU DAMBIS 21b - 8, RĪGA, LV-1005",67383150,info@mcatena.lv,Rīga,N,,,,,56.9789623,24.1150337
"""Profesionālās pilnveides un tālākizglītības iestāde ""BCMC""""",4360801041,Komercsabiedrības struktūrvienība,VSEVOLODS SIČEVS,0,0,Profesionālās tālākizglītības un pilnveides izglītības iestāde,Profesionālās tālākizglītības un pilnveides izglītības iestāde,SIA „Baltic Construction Management Company (BCMC)”,SIA „Baltic Construction Management Company (BCMC)”,"Annasmuiža 3, BABĪTES PAGASTS, BABĪTES NOVADS, LV-2107",28345595,sia.bcmc@inbox.lv,Babītes novads,N,,,,,56.8919092,23.7743237
"""R&V valodu aģentūra""",3360800679,Komercsabiedrības struktūrvienība,,0,0,Profesionālās tālākizglītības un pilnveides izglītības iestāde,Profesionālās tālākizglītības un pilnveides izglītības iestāde,"SIA ""Valodu Aģentūra""","SIA ""Valodu Aģentūra""","SKOLAS IELA 4, RĪGA, LV-1010",67242200,runv@delfi.lv,Rīga,N,,,,,56.9561595,24.1162823
"""Radošo spēju attīstības centrs """"Harmonija""""""",3360800204,Juridiskā vai fiziskā persona,,0,0,Pieaugušo neformālās izglītības iestāde,Pieaugušo izglītības iestāde,"""SO SIA """"Koridors""""""","""SO SIA """"Koridors""""""","Birznieka-Upīša Ernesta 29-10, RĪGA, LV-",7282504,harmonijaa@inbox.lv,Rīga,J,,,,,0,Didn't find exactly one placemark! (Found 3)
"""Reģionālās un biznesa attīstības centrs """"Kurzeme""""""",1260800031,Juridiskā vai fiziskā persona,,0,0,Pieaugušo neformālās izglītības iestāde,Pieaugušo izglītības iestāde,"Īvandes Zaļais Centrs, Kuldīgas rajona padome, Kuldīgas rajona padomes Reģionālās attīstības nodaļa, Uzņēmējdarbības atbalsta centrs, LR Vides aizsardzības un reģionālās attīstības ministrija,  Kuldīgas rajona Īvandes, Ēdoles un Alsungas pag.pad., u.c.","Īvandes Zaļais Centrs, Kuldīgas rajona padome, Kuldīgas rajona padomes Reģionālās attīstības nodaļa, Uzņēmējdarbības atbalsta centrs, LR Vides aizsardzības un reģionālās attīstības ministrija,  Kuldīgas rajona Īvandes, Ēdoles un Alsungas pag.pad., u.c.","PILSĒTAS LAUKUMS 3, KULDĪGA, KULDĪGAS NOVADS, LV-3300",3323469,kurzeme@kuldiga.parks.lv,Kuldīgas novads,J,,,,,56.969528,21.9620639
"""Rīgas pilsētas Latgales priekšpilsētas Pašvaldības bezpeļņas uzņēmums - kultūras un izglītības centrs """"Māra""""""",3651902162,Pašvaldība,,0,0,Bērnu un jauniešu interešu izglītības iestāde,Bērnu un jauniešu interešu izglītības iestāde,Latgales priekšpilsētas pašvaldība,Latgales priekšpilsētas pašvaldība,"Zebiekstes 1, RĪGA, LV-1082","""7583736; 7581671""",,Rīga,J,,,,,56.9464886,24.187803
"""Rīgas pilsētas Skolu valdes Bērnu un jauniešu nams """"Rīdze""""""",3351901687,Pašvaldība,,0,0,Bērnu un jauniešu interešu izglītības iestāde,Bērnu un jauniešu interešu izglītības iestāde,Rīgas pilsētas dome,Rīgas pilsētas dome,"Valdemāra Krišjāņa 2, RĪGA, LV-1047",7225811,bjk@ridze.apollo.lv,Rīga,J,,,,,56.953616,24.1072318
"""Rīgas privātā pirmsskola """"BALU""""""",3601801779,Juridiskā vai fiziskā persona,,0,0,Pirmsskolas izglītības iestāde,Pirmsskolas izglītības iestāde,"""SIA """"BALU""""""","""SIA """"BALU""""""","Maskavas 259a, RĪGA, LV-1063","""9680992; 9720233""",,Rīga,J,,,,,56.922156,24.1724691
"""Rīgas Vecmīlgrāvja sākumskola """"Blāzmiņa""""""",3911900806,Pašvaldība,,0,0,Vispārējās izglītības iestāde,Vispārizglītojošā sākumskola,Rīgas Dome,Rīgas Dome,"Skuju 14, RĪGA, LV-1015",7342161,rvskb@ijsd.riga.lv,Rīga,J,,,,,57.0313627,24.1051457
"""Riteņbraukšanas klubs """"Marss""""""",3370902216,Pašvaldība,,0,0,Profesionālās ievirzes izglītības iestāde,Sporta skola,Rīgas Dome,Rīgas Dome,"Brīvības gatve 207, RĪGA, LV-1039",7553275,klubsmarss@riga.lv,Rīga,J,,,,,56.9743468,24.1687623
"""Rites pagasta pirmsskolas izglītības iestāde """"Cīrulīši""""""",1001900308,Pašvaldība,,0,0,Pirmsskolas izglītības iestāde,Pirmsskolas izglītības iestāde,Rites pagasta Padome,Rites pagasta Padome,"RITES PAGASTS, VIESĪTES NOVADS, LV-5228",5246541,iveta.masevska@jekabpils-rp.lv,Viesītes novads,J,,,,,56.1910447,25.5094743
"""Ritma Institūts"" privātā mūzikas skola",3351802586,Komercsabiedrības struktūrvienība,,0,0,Bērnu un jauniešu interešu izglītības iestāde,Bērnu un jauniešu interešu izglītības iestāde,"Sabiedrība ar ierobežotu atbildību ""TERCS""","Sabiedrība ar ierobežotu atbildību ""TERCS""","ĀRAIŠU IELA 34, RĪGA, LV-1039",26433491,info@ritmainstituts.lv,Rīga,N,,,,,56.9729042,24.1725556
"""Sabiedriskā organizācija """"Latvijas Pedagogu federācija"""" mācību centrs""",3360800354,Juridiskā vai fiziskā persona,,0,0,Pieaugušo neformālās izglītības iestāde,Pieaugušo izglītības iestāde,"""SO """"Latvijas Pedagogu federācija""""""","""SO """"Latvijas Pedagogu federācija""""""","Salaspils 14, RĪGA, LV-1057",7254254,lpf@lapf.lv,Rīga,J,,,,,56.9186041,24.181257
"""SAFEWORK"" mācību centrs",3360800848,Komercsabiedrības struktūrvienība,,0,0,Profesionālās tālākizglītības un pilnveides izglītības iestāde,Profesionālās tālākizglītības un pilnveides izglītības iestāde,SIA „GRIF” filiāle „SAFEWORK.LV”,SIA „GRIF” filiāle „SAFEWORK.LV”,"MASKAVAS IELA 361, RĪGA, LV-1063",67187661,das@grif.lv,Rīga,N,,,,,56.9047067,24.1930775
"""Salo Baltic International"" SIA Mācību centrs",3360800362,Juridiskā vai fiziskā persona,,0,0,Profesionālās tālākizglītības un pilnveides izglītības iestāde,Profesionālās tālākizglītības un pilnveides izglītības iestāde,,,,,,,J,,,,,0,The geocode was successful but returned no results. This may occur if the geocode was passed a non-existent address or a latlng in a remote location.
"""Sausnējas pagasta pirmsskolas izglītības iestāde """"Zīļuks""""""",1601900098,Pašvaldība,,0,0,Pirmsskolas izglītības iestāde,Pirmsskolas izglītības iestāde,Sausnējas pagasta Padome,Sausnējas pagasta Padome,"SAUSNĒJAS PAGASTS, ĒRGĻU NOVADS, LV-4841",4873895,,Ērgļu novads,J,,,,,56.8239336,25.6353245
"""SIA """"Adros Centrs""""""",3360800078,Juridiskā vai fiziskā persona,,0,0,Pieaugušo neformālās izglītības iestāde,Pieaugušo izglītības iestāde,"""SIA """"Adros Centrs"""" Mihails Dondžua""","""SIA """"Adros Centrs"""" Mihails Dondžua""","Audēju 11, RĪGA, LV-1050",7226873,adros@delfi.lv,Rīga,J,,,,,56.9469656,24.1121572
"""SIA """"ARMILLARS""""""",3360800143,Juridiskā vai fiziskā persona,,0,0,Pieaugušo neformālās izglītības iestāde,Pieaugušo izglītības iestāde,Igors Sidorovs,Igors Sidorovs,"Kastrānes 40910, RĪGA, LV-1039",9467651,,Rīga,J,,,,,56.968525,24.1774999
"""SIA """"ASTROĢENĒTIKA"""" Mācību centrs """"NĀKOTNES PROFESIJAS""""""",3360800208,Juridiskā vai fiziskā persona,,0,0,Pieaugušo neformālās izglītības iestāde,Pieaugušo izglītības iestāde,"""SIA """"ASTROĢENĒTIKA"""", Svetlana Budjaškina""","""SIA """"ASTROĢENĒTIKA"""", Svetlana Budjaškina""","Dzirnavu 43/3-8, RĪGA, LV-1010",7240256,s.b@astro.eunet.lv,Rīga,J,,,,,0,Didn't find exactly one placemark! (Found 3)
"""SIA """"Biznesa augstskola Turība"""" Komercskola""",3813800705,Juridiskā vai fiziskā persona,,0,0,Vispārējās izglītības iestāde,Vispārizglītojošā vidusskola,"""SIA """"Biznes augstskola Turība""""""","""SIA """"Biznes augstskola Turība""""""","Graudu 68, RĪGA, LV-1058",7606103,turiba@turiba.lv,Rīga,J,,,,,56.9107433,24.0797032
"""SIA """"CTC"""" Krupjē mācību centrs""",3360800044,Juridiskā vai fiziskā persona,,0,0,Pieaugušo neformālās izglītības iestāde,Pieaugušo izglītības iestāde,"""SIA """"CTC""""""","""SIA """"CTC""""""","Rūpniecības 32b, RĪGA, LV-1045",7323399,,Rīga,J,,,,,56.9645186,24.1042201
"""SIA """"EFELIJA L"""" mācību centrs""",1360800193,Juridiskā vai fiziskā persona,,0,0,Pieaugušo neformālās izglītības iestāde,Pieaugušo izglītības iestāde,"""SIA """"EFELIJA L""""""","""SIA """"EFELIJA L""""""","M.Ķempes 16a, LIEPĀJA, LV-3416",3436777,,Liepāja,J,,,,,56.4813916,21.027001
"""SIA """"ENTERSIS'' datorcentrs""",3360800054,Juridiskā vai fiziskā persona,,0,0,Pieaugušo neformālās izglītības iestāde,Pieaugušo izglītības iestāde,"""SIA """"Entersis''""","""SIA """"Entersis''""","Valdemāra Krišjāņa 2, RĪGA, LV-1047",7314179,entersis@entersis.lv,Rīga,J,,,,,56.953616,24.1072318
"""SIA """"Finansu Aģentūra Karavāna"""" Grāmatvežu izglītības centrs""",3360800067,Juridiskā vai fiziskā persona,,0,0,Pieaugušo neformālās izglītības iestāde,Pieaugušo izglītības iestāde,"""Vladimirs Lahtadirs, Elina Lahtadire SIA """"Finansu Aģentūra Karavāna"""" dibinātāji""","""Vladimirs Lahtadirs, Elina Lahtadire SIA """"Finansu Aģentūra Karavāna"""" dibinātāji""","Aizkraukles 23, RĪGA, LV-1006",7543340,caravan@mailbox.riga.lv,Rīga,J,,,,,56.9768356,24.1932696
"""SIA """"Jauno psiholoģiju centrs""""""",3360800171,Juridiskā vai fiziskā persona,,0,0,Pieaugušo neformālās izglītības iestāde,Pieaugušo izglītības iestāde,Dace Rolava,Dace Rolava,"Kalniņa Alfrēda 41020, RĪGA, LV-1050",7281957,info@nlp.lv,Rīga,J,,,,,56.9489,24.1215
"""SIA """"Konsultāciju birojs Lauda"""" mācību iestāde""",3460800041,Juridiskā vai fiziskā persona,,0,0,Pieaugušo neformālās izglītības iestāde,Pieaugušo izglītības iestāde,"Inga Jansone, Līga Ofkante, Elita Šterna, Viga Knopa","Inga Jansone, Līga Ofkante, Elita Šterna, Viga Knopa","Ģertrūdes ""20; Otra adrese: Kuldīgas iela 3, Ventspils, LV-3, RĪGA, LV-1011",3628095,,Rīga,J,,,,,56.9527388,24.1297472
"""SIA """"Latdata"""" muitas agentu (brokeru) mācību centrs""",3460800033,Juridiskā vai fiziskā persona,,0,0,Pieaugušo neformālās izglītības iestāde,Pieaugušo izglītības iestāde,"""SIA """"Latdata""""""","""SIA """"Latdata""""""","Stabu 92, RĪGA, LV-1009",7372226,latdata-office@mnet.rbis.lv,Rīga,J,,,,,56.9500628,24.1410242
"""SIA """"Latģeodizains""""""",3360800191,Juridiskā vai fiziskā persona,,0,0,Pieaugušo neformālās izglītības iestāde,Pieaugušo izglītības iestāde,"Gaļina Mūrniece, Larisa Andrjušina","Gaļina Mūrniece, Larisa Andrjušina","Mūkusalas 41/R-32, RĪGA, LV-1004",7285354,,Rīga,J,,,,,56.9360752,24.1031648
"""SIA """"Lattelekom"""" Mācību centrs""",2960800149,Juridiskā vai fiziskā persona,,0,0,Pieaugušo neformālās izglītības iestāde,Pieaugušo izglītības iestāde,"""SIA """"Lattelekom""""""","""SIA """"Lattelekom""""""","Viestura 6, JŪRMALA, LV-2010",7051900,mcentrs@apollo.lv,Jūrmala,J,,,,,56.9721519,23.8501149
"""SIA """"Mācību centrs """"Valence""""""""""",0160800407,Juridiskā vai fiziskā persona,,0,0,Pieaugušo neformālās izglītības iestāde,Pieaugušo izglītības iestāde,Dženija Dzirkale-Maļavkina,Dženija Dzirkale-Maļavkina,"KOKNESES PAGASTS, KOKNESES NOVADS, LV-5113",5123405,mcvalence@inbox.lv,Kokneses novads,J,,,,,56.6551223,25.4167089
"""SIA """"Mācību metodiskais centrs """"VIA-MODERNA""""""",3360800081,Juridiskā vai fiziskā persona,,0,0,Pieaugušo neformālās izglītības iestāde,Pieaugušo izglītības iestāde,Irina Nepočatova,Irina Nepočatova,"Kaļķu 1, RĪGA, LV-1050","""7378780; 9789310""",inepochatova@inbox.lv,Rīga,J,,,,,56.9472011,24.1051693
"""SIA """"MC Ventspils""""""",3260800088,Juridiskā vai fiziskā persona,,0,0,Pieaugušo neformālās izglītības iestāde,Pieaugušo izglītības iestāde,Sandra Maizīte,Sandra Maizīte,"Kuldīgas 1, VENTSPILS, LV-3600",9443284,,Ventspils,J,,,,,57.3951156,21.5718813
"""SIA """"Modeļu aģentūra Klass studija"""" mācību centrs""",3360800063,Juridiskā vai fiziskā persona,,0,0,Pieaugušo neformālās izglītības iestāde,Pieaugušo izglītības iestāde,"""SIA """"Modeļu aģentūra Klass studija""""""","""SIA """"Modeļu aģentūra Klass studija""""""","Čaka Aleksandra 53-6, RĪGA, LV-1011",7311027,,Rīga,J,,,,,56.9542546,24.1322198
"""SIA """"NET UNIVERSITY"""" Pieaugušo izglītības iegūšanas koordinācijas un konsultāciju centrs""",3360800142,Juridiskā vai fiziskā persona,,0,0,Pieaugušo neformālās izglītības iestāde,Pieaugušo izglītības iestāde,"""SIA """"NET UNIVERSITY""""""","""SIA """"NET UNIVERSITY""""""","Skārņu 25-2, RĪGA, LV-1050","""9230030; 7227169""",info@netuniversity.lv,Rīga,J,,,,,0,Didn't find exactly one placemark! (Found 2)
"""SIA """"Pavlros Baltija"""" mācību centrs """"Linda""""""",3760800029,Juridiskā vai fiziskā persona,,0,0,Pieaugušo neformālās izglītības iestāde,Pieaugušo izglītības iestāde,"""SIA """"Pavlros Baltija""""""","""SIA """"Pavlros Baltija""""""","Dzērbenes 14, RĪGA, LV-1006",2271294,,Rīga,J,,,,,56.9773191,24.1943907
"""SIA """"RASKONS"""" grāmatvedības kursi pieaugušajiem""",3360800069,Juridiskā vai fiziskā persona,,0,0,Pieaugušo neformālās izglītības iestāde,Pieaugušo izglītības iestāde,Vladimirs Šumilo,Vladimirs Šumilo,"Vaļņu 3, RĪGA, LV-1050",7216735,balatin@inet.lv,Rīga,J,,,,,56.9506602,24.1094557
"""SIA """"Sango"""" Eiropas attīstības skola""",3660800040,Juridiskā vai fiziskā persona,,0,0,Pieaugušo neformālās izglītības iestāde,Pieaugušo izglītības iestāde,"""SIA """"Sango""""""","""SIA """"Sango""""""","Katlakalna 10, RĪGA, LV-1073",7280497,sango@mailbox.riga.lv,Rīga,J,,,,,56.9301781,24.1970538
"""SIA """"SANUS""""""",3360800115,Juridiskā vai fiziskā persona,,0,0,Pieaugušo neformālās izglītības iestāde,Pieaugušo izglītības iestāde,,,"Nīcgales 26, RĪGA, LV-1035",2574936,,Rīga,J,,,,,56.952205,24.1733478
"""SIA """"SAULES PLUS""""""",3360800207,Juridiskā vai fiziskā persona,,0,0,Pieaugušo neformālās izglītības iestāde,Pieaugušo izglītības iestāde,Sergejs Nozdračevs,Sergejs Nozdračevs,"Čaka Aleksandra 91/93, RĪGA, LV-1011",7311386,saulesplus@apollo.lv,Rīga,J,,,,,0,Didn't find exactly one placemark! (Found 3)
"""SIA """"SIVA"""" MC""",3360800043,Juridiskā vai fiziskā persona,,0,0,Pieaugušo neformālās izglītības iestāde,Pieaugušo izglītības iestāde,"""Strazdiņa SIA """"SIVA""""""","""Strazdiņa SIA """"SIVA""""""","Elizabetes 2, RĪGA, LV-1010",7331210,,Rīga,J,,,,,56.9581493,24.1025881
"""SIA """"SP Aģentūra""""""",3360800077,Juridiskā vai fiziskā persona,,0,0,Pieaugušo neformālās izglītības iestāde,Pieaugušo izglītības iestāde,Maruta Ročāne,Maruta Ročāne,"Akas 4, RĪGA, LV-1011",6551786,agentura-laila@hotmail.com,Rīga,J,,,,,56.9559491,24.124153
"""SIA """"Teksa"""" mācību centrs """"Teksa""""""",3360800094,Juridiskā vai fiziskā persona,,0,0,Pieaugušo neformālās izglītības iestāde,Pieaugušo izglītības iestāde,"""SIA """"Teksa""""""","""SIA """"Teksa""""""","Kalniņa Alfrēda 2, RĪGA, LV-1050",7100385,teksa@delfi.lv,Rīga,J,,,,,56.9491128,24.121501
"""SIA """"UNIK-AL"""" Pirmsskolas izglītības iestāde """"UNIK-AL""""""",3301802511,Juridiskā vai fiziskā persona,,0,0,Pirmsskolas izglītības iestāde,Pirmsskolas izglītības iestāde,"""SIA """"UNIK-AL""""""","""SIA """"UNIK-AL""""""","Dzirciema 63-59, RĪGA, LV-1055",7473569,,Rīga,J,,,,,0,Didn't find exactly one placemark! (Found 2)
"""SIA """"Vivants"""" """,3360800181,Juridiskā vai fiziskā persona,,0,0,Pieaugušo neformālās izglītības iestāde,Pieaugušo izglītības iestāde,Vita Arhipova,Vita Arhipova,"Arhitektu 1, RĪGA, LV-1050",7210696,office@vivants.eunet.lv,Rīga,J,,,,,56.9503823,24.1167595
"""SIA """"ZS Dūdiņas""""""",3360800073,Juridiskā vai fiziskā persona,,0,0,Pieaugušo neformālās izglītības iestāde,Pieaugušo izglītības iestāde,Dzidra Gailīte,Dzidra Gailīte,"Citadeles 2-407, RĪGA, LV-1010",7226566,dudinas@another.com,Rīga,J,,,,,56.9534216,24.1006244
"""SIA ""Būveksperts AV"" mācību centrs""",4360800778,Komercsabiedrības struktūrvienība,,0,0,Profesionālās tālākizglītības un pilnveides izglītības iestāde,Profesionālās tālākizglītības un pilnveides izglītības iestāde,"SIA ""BŪVEKSPERTS AV""","SIA ""BŪVEKSPERTS AV""","ROŽU IELA 27, MĀRUPE, MĀRUPES NOVADS, LV-2167",29525066,buvekspertsav@inbox.lv,Mārupes novads,N,,,,,56.8926259,24.0379074
"""SIA mežizglītības centrs """"MIDAMS""""""",2860800239,Juridiskā vai fiziskā persona,,0,0,Pieaugušo neformālās izglītības iestāde,Pieaugušo izglītības iestāde,"Jadviga Beķere, Zigurds Beķeris, Teodora Blija, Jura Jurēvica, Leonards Līpiņš, Ziedonis Sarmulis, Linards Sisenis, Arnolds Šķēle, Pudencija Šķēle","Jadviga Beķere, Zigurds Beķeris, Teodora Blija, Jura Jurēvica, Leonards Līpiņš, Ziedonis Sarmulis, Linards Sisenis, Arnolds Šķēle, Pudencija Šķēle","Akadēmijas 11, JELGAVA, LV-3001","""3026059; 9453479""",,Jelgava,J,,,,,56.6502154,23.7309038
"""SKDC"" Mācību centrs",3360800519,Juridiskā vai fiziskā persona,,0,0,Profesionālās tālākizglītības un pilnveides izglītības iestāde,Profesionālās tālākizglītības un pilnveides izglītības iestāde,,,,,,,J,,,,,0,The geocode was successful but returned no results. This may occur if the geocode was passed a non-existent address or a latlng in a remote location.
"""Skrīveru pagasta pirmsskolas izglītības iestāde """"Vārpiņa""""""",0101901715,Pašvaldība,,0,0,Pirmsskolas izglītības iestāde,Pirmsskolas izglītības iestāde,Skrīveru pagasta Padome,Skrīveru pagasta Padome,"Zemkopības inst. 15, SKRĪVERU PAGASTS, LV-5125",5197533,,Skrīveru pagasts,J,,,,,56.6263449,25.125254
"""Skrīveru pagasta S.Ozolas individuālā uzņēmuma pirmsskolas izglītības iestāde """"Saulēni""""""",0101802135,Juridiskā vai fiziskā persona,,0,0,Pirmsskolas izglītības iestāde,Pirmsskolas izglītības iestāde,Sandra Ozola,Sandra Ozola,"Zemkopības institūts 15, SKRĪVERU PAGASTS, LV-5126",5197533,,Skrīveru pagasts,J,,,,,56.6263449,25.125254
"""Smiltenes pilsētas pirmsskolas izglītības iestāde """"Vālodzīte""""""",2401901404,Pašvaldība,,0,0,Pirmsskolas izglītības iestāde,Pirmsskolas izglītības iestāde,Smiltenes pilsētas Dome,Smiltenes pilsētas Dome,"MĒTRAS IELA 11, SMILTENE, SMILTENES NOVADS, LV-4729",4773559,,Smiltenes novads,J,,,,,57.4225361,25.9002613
"""SO """"Bērnu attīstības centrs """"SUPERMAZULIS""""""""""",3351802475,Juridiskā vai fiziskā persona,,0,0,Bērnu un jauniešu interešu izglītības iestāde,Bērnu un jauniešu interešu izglītības iestāde,"Ivanovs Ruslans, Jekaterina Andžāne","Ivanovs Ruslans, Jekaterina Andžāne","Induļa 4, RĪGA, LV-1084",9540738,pedagog_2003@mail.ru,Rīga,J,,,,,56.9621522,24.1842639
"""SO """"Junior Achievement - Latvija""""""",3360800327,Juridiskā vai fiziskā persona,,0,0,Pieaugušo neformālās izglītības iestāde,Pieaugušo izglītības iestāde,"""SO """"Junior Achievement-Latvia""""""","""SO """"Junior Achievement-Latvia""""""","Vaļņu 2, RĪGA, LV-1050",7339656,jal@jal.lv,Rīga,J,,,,,56.9509836,24.1095224
"""SO """"Latvijas Transoloģiskās Psihoterapijas asociācija"""" Mācību centrs""",3360800186,Juridiskā vai fiziskā persona,,0,0,Pieaugušo neformālās izglītības iestāde,Pieaugušo izglītības iestāde,"""SO """"Latvijas Transoloģiskās Psihoterapijas asociācija""""""","""SO """"Latvijas Transoloģiskās Psihoterapijas asociācija""""""","Elvīras 18-14, RĪGA, LV-1083",7456060,kalkisv@mail.navigators.lv,Rīga,J,,,,,56.9471478,24.0506455
"""SO """"Novadu Zinību centrs Vecrīga""""""",3360800092,Juridiskā vai fiziskā persona,,0,0,Pieaugušo neformālās izglītības iestāde,Pieaugušo izglītības iestāde,"Velta Vingere, Monika Pastare, Regīna Kozlovska","Velta Vingere, Monika Pastare, Regīna Kozlovska","Meistaru 41194, RĪGA, LV-1050",7213693,,Rīga,J,,,,,56.9499619,24.1083382
"""SO """"Novadu Zinību centrs-Tukums"""" Mācību centram""",2360800379,Juridiskā vai fiziskā persona,,0,0,Pieaugušo neformālās izglītības iestāde,Pieaugušo izglītības iestāde,"""SO """"Novadu Zinību centrs-Tukums""""""","""SO """"Novadu Zinību centrs-Tukums""""""","PILSKALNA IELA 13, TUKUMS, TUKUMA NOVADS, LV-3101","""3124963; 3122275; 6466983""",nzc@infonet.lv,Tukuma novads,J,,,,,56.9663471,23.1296739
"""SO """"Par labāku dzīvi un izglītību""""Mācību centrs """"Marica""""""",3360800276,Juridiskā vai fiziskā persona,,0,0,Pieaugušo neformālās izglītības iestāde,Pieaugušo izglītības iestāde,"""SO """"Par labāku dzīvi un izglītību""""""","""SO """"Par labāku dzīvi un izglītību""""""","Zemitāna 6, RĪGA, LV-",6589079,soldi@inbox.lv,Rīga,J,,,,,56.9655077,24.1543154
"""SO """"Psiholoģiskā atbalsta un izglītības centrs""""""",0460800128,Juridiskā vai fiziskā persona,,0,0,Pieaugušo neformālās izglītības iestāde,Pieaugušo izglītības iestāde,"Andra Katkeviča, Evija Krišjāne, Mudīte Strazdiņa, Benita Svareniece, Ērika Pulkstene","Andra Katkeviča, Evija Krišjāne, Mudīte Strazdiņa, Benita Svareniece, Ērika Pulkstene","RĀTSLAUKUMS 4, BAUSKA, BAUSKAS NOVADS, LV-3901",3960634,bauska@nvd.apollo.lv,Bauskas novads,J,,,,,56.4100942,24.1853675
"""SO """"Rīgas Aromaterapijas Skola"""" Mācību centrs """"Ambra""""""",3360800256,Juridiskā vai fiziskā persona,,0,0,Pieaugušo neformālās izglītības iestāde,Pieaugušo izglītības iestāde,"""SO """"Rīgas Aromaterapijas Skola""""""","""SO """"Rīgas Aromaterapijas Skola""""""","Matīsa 79/3, RĪGA, LV-1009",7275716,aroma@aromaterapija.org,Rīga,J,,,,,56.9533497,24.1415799
"""SO """"Rīgas Geštalta institūts"""" Geštaltterapijas mācību centrs""",3360800336,Juridiskā vai fiziskā persona,,0,0,Pieaugušo neformālās izglītības iestāde,Pieaugušo izglītības iestāde,"""SO """"Rīgas Geštalta institūts""""""","""SO """"Rīgas Geštalta institūts""""""","Pulkveža Brieža 7-108d, RĪGA, LV-1010",7873004,gestalt@gestalt.lv,Rīga,J,,,,,56.959845,24.1052402
"""SO """"Sociālais izglītības un atpūtas centrs """"Latgales LIGA"""" Mācību centram""",3160800269,Juridiskā vai fiziskā persona,,0,0,Pieaugušo neformālās izglītības iestāde,Pieaugušo izglītības iestāde,"""SO """"Sociālais izglītības un atpūtas centrs """"Latgales LIGA"""" ""","""SO """"Sociālais izglītības un atpūtas centrs """"Latgales LIGA"""" ""","Nikodema Rancāna 1a, RĒZEKNE, LV-4600","""9198587; 9849127""",,Rēzekne,J,,,,,0,The geocode was successful but returned no results. This may occur if the geocode was passed a non-existent address or a latlng in a remote location.
"""SO Pieaugušo profesionālās tālākizglītības centrs""""""",3360800158,Juridiskā vai fiziskā persona,,0,0,Pieaugušo neformālās izglītības iestāde,Pieaugušo izglītības iestāde,"Zinaida Soboleva, Lidija Vēvere","Zinaida Soboleva, Lidija Vēvere","Dzirnavu 117, RĪGA, LV-1011",7286921,skola@3arodskola.lv,Rīga,J,,,,,56.9490375,24.1250681
"""Specializētā olimpisko rezervju riteņbraukšanas bērnu un jaunatnes sporta skola """"Baltika""""""",3370902214,Pašvaldība,,0,0,Profesionālās ievirzes izglītības iestāde,Sporta skola,Rīgas Dome,Rīgas Dome,"Grīvas 28, RĪGA, LV-1055","7473810, 7473809",bjssbaltika@riga.lv,Rīga,J,,,,,56.9638325,24.0488597
"""Sporta centrs Daugavpils ledus""",2771902640,Pastarpinātās pārvaldes iestāde,VIKTORS DRELINGS,0,0,Profesionālās ievirzes izglītības iestāde,Sporta skola,Daugavpils pilsētas Dome,Daugavpils pilsētas Dome,"STACIJAS IELA 47a, DAUGAVPILS, LV-5403",65407191,scdledus@inbox.lv,Daugavpils,J,,,,,55.8726171,26.5295182
"""Sporta izglītības aģentūra""",3360800907,Komercsabiedrības struktūrvienība,,0,0,Profesionālās tālākizglītības un pilnveides izglītības iestāde,Profesionālās tālākizglītības un pilnveides izglītības iestāde,"Sabiedrība ar ierobežotu atbildību ""Sporta izglītības aģentūra""","Sabiedrība ar ierobežotu atbildību ""Sporta izglītības aģentūra""","ALEKSANDRA ČAKA IELA 118b, RĪGA, LV-1012",22016683,birojs@sportaizglitiba.lv,Rīga,N,,,,,56.9596708,24.1446838
"""SSO """"Rīgas Džiu - Džitsu klubs""""""",3360800190,Juridiskā vai fiziskā persona,,0,0,Pieaugušo neformālās izglītības iestāde,Pieaugušo izglītības iestāde,Oļegs Kranga,Oļegs Kranga,"Salnas 41096, RĪGA, LV-1021",7183559,jiu-jitsu@mail.lv,Rīga,J,,,,,56.9424289,24.2252558
"""TOP Cosmetics Mācību centrs""",3360800871,Komercsabiedrības struktūrvienība,JĀNIS ZVEJNIEKS,0,0,Profesionālās tālākizglītības un pilnveides izglītības iestāde,Profesionālās tālākizglītības un pilnveides izglītības iestāde,"SIA ""Top Cosmetics""","SIA ""Top Cosmetics""","DZIRNAVU IELA 3a - 2, RĪGA, LV-1010",67334378,tcmacibucentrs@topcosmetics.lv,Rīga,N,,,,,0,Didn't find exactly one placemark! (Found 2)
"""TR skola - studija""",2760800597,Komercsabiedrības struktūrvienība,,0,0,Profesionālās tālākizglītības un pilnveides izglītības iestāde,Profesionālās tālākizglītības un pilnveides izglītības iestāde,"Sabiedrība ar ierobežotu atbildību ""AMINA""","Sabiedrība ar ierobežotu atbildību ""AMINA""","LĀČPLĒŠA IELA 45, DAUGAVPILS, LV-4500",65421847,taisjaruckanova@yahoo.com,Daugavpils,N,,,,,55.8717117,26.5248539
"""Tukuma pilsētas pirmsskolas izglītības iestāde """"Taurenītis""""""",2301900398,Pašvaldība,,0,0,Pirmsskolas izglītības iestāde,Pirmsskolas izglītības iestāde,Tukuma pilsētas Tautas deputātu padomes izpildu komiteja,Tukuma pilsētas Tautas deputātu padomes izpildu komiteja,"SMILŠU IELA 46, TUKUMS, TUKUMA NOVADS, LV-5300",3123112,,Tukuma novads,J,,,,,56.9747755,23.1426439
"""Užavas pagasta pirmsskolas izglītības iestāde """"Auseklītis""""""",2601900547,Pašvaldība,,0,0,Pirmsskolas izglītības iestāde,Pirmsskolas izglītības iestāde,"""Padomju saimniecība """"Užava""""""","""Padomju saimniecība """"Užava""""""","UŽAVAS PAGASTS, VENTSPILS NOVADS, LV-3627",3699242,,Ventspils novads,J,,,,,57.1979908,21.478072
"""Zasas pagasta pirmsskolas izglītības iestāde """"Vāverīte""""""",1001900309,Pašvaldība,,0,0,Pirmsskolas izglītības iestāde,Pirmsskolas izglītības iestāde,Zasas pagasta pašvaldība,Zasas pagasta pašvaldība,"ZASAS PAGASTS, JĒKABPILS NOVADS, LV-5221",5254318,,Jēkabpils novads,J,,,,,56.2486302,26.056981
"""Zīļuks"" pirmsskolas izglītības iestāde",4301900539,Pastarpinātās pārvaldes iestāde,GUNTA GĪME,0,0,Pirmsskolas izglītības iestāde,Pirmsskolas izglītības iestāde,Limbažu novada pašvaldība,Limbažu novada pašvaldība,"ULDA SPROĢA IELA 7, UMURGA, UMURGAS PAGASTS, LIMBAŽU NOVADS, LV-4004",64070706,ziluks@limbazi.lv,Limbažu novads,N,,,,,57.5202296,24.8083395
”Rīgas privātā profesionālā vidusskola” SIA,3331802633,Juridiskā vai fiziskā persona,,0,0,Profesionālās izglītības iestāde,Profesionālās vidējās izglītības iestāde,Valentīna Petrova,Valentīna Petrova,"BALTĀ IELA 22/1 - 6, RĪGA, LV-1055","7225424, 7225420",,Rīga,J,,,,,56.9704829,24.0632608
„Amatnieku studija Fleur” SIA Mācību centrs,3360800558,Komercsabiedrības struktūrvienība,,0,0,Profesionālās tālākizglītības un pilnveides izglītības iestāde,Profesionālās tālākizglītības un pilnveides izglītības iestāde,„Amatnieku studija Fleur” SIA,„Amatnieku studija Fleur” SIA,"OLĪVU IELA 7, RĪGA, LV-1083",29645437,,Rīga,N,,,,,56.9246257,24.0865934
„Amber Line” mācību centrs,1260800542,Juridiskā vai fiziskā persona,,0,0,Profesionālās tālākizglītības un pilnveides izglītības iestāde,Profesionālās tālākizglītības un pilnveides izglītības iestāde,Sabiedrība ar ierobežotu atbildību „Amber Line”,Sabiedrība ar ierobežotu atbildību „Amber Line”,"LIEPĀJAS IELA 1 - 1, KULDĪGA, KULDĪGAS NOVADS, LV-3301",63320688,info@amberline.com,Kuldīgas novads,J,,,,,56.9684757,21.970503
„Atkarību ierobežošanas Pētnieciskais centrs”,444128,Nodibinājuma struktūrvienība,,0,0,Zinātniskā institūcija,Nodibinājums,"Atklātais sabiedriskais fonds ""Latvijas Narkomānijas un žūpības apkarošanas fonds""","Atklātais sabiedriskais fonds ""Latvijas Narkomānijas un žūpības apkarošanas fonds""","BAZNĪCAS IELA 34 - 3a, RĪGA, LV-1010",67226080,,Rīga,N,,,,,56.959405,24.1245766
„Dizaina un Biznesa skola” SIA,3360800543,Komercsabiedrība,,0,0,Profesionālās tālākizglītības un pilnveides izglītības iestāde,Profesionālās tālākizglītības un pilnveides izglītības iestāde,Valentīna Petrova,Valentīna Petrova,"BALTĀ IELA 22, RĪGA, LV-1055","67225424, 67225420, 67507271",,Rīga,J,,,,,56.9699703,24.0642961
„Drošības uz ūdens un medicīnas mācību centrs”,2960800562,Juridiskā vai fiziskā persona,,0,0,Profesionālās tālākizglītības un pilnveides izglītības iestāde,Profesionālās tālākizglītības un pilnveides izglītības iestāde,Pašvaldības sabiedrība ar ierobežotu atbildību „Jūrmalas ātrā palīdzība”,Pašvaldības sabiedrība ar ierobežotu atbildību „Jūrmalas ātrā palīdzība”,"STRAUMES IELA 1a, JŪRMALA, LV-2015",67762147 67762134,jnmp@groteks.lv,Jūrmala,N,,,,,56.96883,23.8058837
„Idea Decima” Mācību centrs,3360800526,Juridiskā vai fiziskā persona,,0,0,Profesionālās tālākizglītības un pilnveides izglītības iestāde,Profesionālās tālākizglītības un pilnveides izglītības iestāde,,,,,,,J,,,,,0,The geocode was successful but returned no results. This may occur if the geocode was passed a non-existent address or a latlng in a remote location.
„IZGLĪTĪBAS CENTRS PROFEKTIS” profesionālās pilnveides un tālākizglītības iestāde,3360802002,Komercsabiedrības struktūrvienība,,0,0,Profesionālās tālākizglītības un pilnveides izglītības iestāde,Profesionālās tālākizglītības un pilnveides izglītības iestāde,"""PROFEKTIS"" SIA","""PROFEKTIS"" SIA","VIESTURA PROSPEKTS 33 k-1 - 57, RĪGA, LV-1005",27707252,centrsprofektis@gmail.com,Rīga,N,,,,,0,Didn't find exactly one placemark! (Found 3)
„LSDF izglītības centrs”,3360800803,Biedrības struktūrvienība,,0,0,Profesionālās tālākizglītības un pilnveides izglītības iestāde,Profesionālās tālākizglītības un pilnveides izglītības iestāde,Biedrība Latvijas Sporta deju federācija,Biedrība Latvijas Sporta deju federācija,"ALEKSANDRA ČAKA IELA 46 - 16, RĪGA, LV-1011",67505223,LSDF@ml.lv,Rīga,N,,,,,56.9537769,24.1319989
„Mac Organizācija”,4560800820,Biedrība,,0,0,Profesionālās tālākizglītības un pilnveides izglītības iestāde,Profesionālās tālākizglītības un pilnveides izglītības iestāde,"Kristaps Ļaudams, Matīss Celmiņš, Āris Rečs","Kristaps Ļaudams, Matīss Celmiņš, Āris Rečs","BĒRZU IELA 8, DOBELE, DOBELES NOVADS, LV-3701",26418039,mac.edu@inbox.lv,Dobeles novads,N,,,,,56.6261843,23.2731481
„Mācību centrs Orient”,3160800868,Biedrības struktūrvienība,,0,0,Profesionālās tālākizglītības un pilnveides izglītības iestāde,Profesionālās tālākizglītības un pilnveides izglītības iestāde,Biedrība „Mācību centrs Orient”,Biedrība „Mācību centrs Orient”,"ATBRĪVOŠANAS ALEJA 120 - 1, RĒZEKNE, LV-4601",26179314,mcorient@inbox.lv,Rēzekne,N,,,,,56.5108518,27.3339205
„Nodibinājums ”Rīgas reģiona attīstības aģentūra”” Mācību centrs,3360800583,Juridiskā vai fiziskā persona,,0,0,Profesionālās izglītības iestāde,Pieaugušo izglītības iestāde,„Nodibinājums ”Rīgas reģiona attīstības aģentūra””,„Nodibinājums ”Rīgas reģiona attīstības aģentūra””,"KAĻĶU IELA 24, RĪGA, LV-1050",67830800,,Rīga,J,,,,,56.9496618,24.1108501
„ŠAMIR”,464115,Biedrība,,0,0,Zinātniskā institūcija,Biedrība,"Biedrība ""ŠAMIR""","Biedrība ""ŠAMIR""","STABU IELA 63, RĪGA, LV-1011",67270827,shamir@apollo.lv,Rīga,N,,,,,56.953105,24.1356203
"„Vecāki izglītībai, sadarbībai, izaugsmei” Pētniecības centrs",444119,Biedrības struktūrvienība,,0,0,Zinātniskā institūcija,Biedrība,"Latvijas Vecāku apvienība ""Vecāki izglītībai, sadarbībai, izaugsmei""","Latvijas Vecāku apvienība ""Vecāki izglītībai, sadarbībai, izaugsmei""","SKOLAS IELA 30 - 21, RĪGA, LV-1010",29420052,so-visi@inbox.lv,Rīga,J,,,,,0,Didn't find exactly one placemark! (Found 2)
„VIDES RISINĀJUMU INSTITŪTS”,444140,Nodibinājums,,0,0,Zinātniskā institūcija,Nodibinājums,"Nodibinājums ""VIDES RISINĀJUMU INSTITŪTS""","Nodibinājums ""VIDES RISINĀJUMU INSTITŪTS""","""Lidlauks"", PRIEKUĻU PAGASTS, PRIEKUĻU NOVADS, LV-4126",64127953,lidlauks@videsinstituts.lv,Priekuļu novads,N,,,,,57.3205791,25.4632751
„VSMP Aģentūra” Mācību centrs,3360800524,Juridiskā vai fiziskā persona,,0,0,Profesionālās izglītības iestāde,Pieaugušo izglītības iestāde,"Sabiedrība ar ierobežotu atbildību ""VSMP AĢENTŪRA""","Sabiedrība ar ierobežotu atbildību ""VSMP AĢENTŪRA""","KĀRĻA ULMAŅA GATVE 2a, RĪGA, LV-1004",67804070,vsmp_agentura@apollo.lv,Rīga,J,,,,,56.9236875,24.1036269
2. Mežvidu pamatskola,1512900462,Pastarpinātās pārvaldes iestāde,,0,0,Vispārējās izglītības iestāde,Vispārizglītojošā pamatskola,Mežvidu pagasta Padome,Mežvidu pagasta Padome,"2.Mežvidu pamatskola, LV-5737",65728059,mezvidi2skola@navigator.lv  mezvidi2skola@inbox.lv,2.mežvidu pamatskola,J,,,,,57.218242,27.7371644
A. Spāģa Dunalkas pamatskola,4112901029,Pastarpinātās pārvaldes iestāde,RITA JAUNSKUNGA,0,0,Vispārējās izglītības iestāde,Vispārizglītojošā pamatskola,Durbes novada pašvaldība,Durbes novada Dome,"""Dunalkas skola"", DUNALKAS PAGASTS, DURBES NOVADS, LV-3452",63454115,dunalkaspmsk@durbe.lv,Durbes novads,N,,,,,56.7016179,21.3173409
"A/s ""Datorzinību centrs"" Mācību centrs",3360800438,Komercsabiedrības struktūrvienība,,0,0,Profesionālās tālākizglītības un pilnveides izglītības iestāde,Profesionālās tālākizglītības un pilnveides izglītības iestāde,"A/s ""Datorzinību centrs""","A/s ""Datorzinību centrs""","LĀČPLĒŠA IELA 11, RĪGA, LV-1011",67338366,kursi@dzc.lv,Rīga,N,,,,,56.9570415,24.1203361
"A/s ""Mācību komercfirma""",3360800060,Komercsabiedrība,,0,0,Profesionālās tālākizglītības un pilnveides izglītības iestāde,Profesionālās tālākizglītības un pilnveides izglītības iestāde,"Sabiedrība ar ierobežotu atbildību ""GRANT-M""","Sabiedrība ar ierobežotu atbildību ""GRANT-M""","VISVALŽA IELA 6, RĪGA, LV-1050",67288468,mkf@mkf.riga.lv,Rīga,N,,,,,56.9477467,24.1299441
"A/s ""Rīgas siltums"" Mācību centrs",3760800021,Komercsabiedrības struktūrvienība,,0,0,Profesionālās tālākizglītības un pilnveides izglītības iestāde,Profesionālās tālākizglītības un pilnveides izglītības iestāde,"A/s ""Rīgas siltums""","A/s ""Rīgas siltums""","CĒSU IELA 3a, RĪGA, LV-1012",67017230,valdis.varavs@rs.lv,Rīga,N,,,,,56.963929,24.1367778
"A/s ""Ventspils tirdzniecības osta"" Mācību centrs",3260800212,Komercsabiedrības struktūrvienība,,0,0,Profesionālās tālākizglītības un pilnveides izglītības iestāde,Profesionālās tālākizglītības un pilnveides izglītības iestāde,"A/s ""Ventspils tirdzniecības osta""","A/s ""Ventspils tirdzniecības osta""","DZINTARU IELA 22, VENTSPILS, LV-3602",63668320,macibu.centrs@vcp.lv,Ventspils,N,,,,,57.4008623,21.5850737
Ābeļu pamatskola,4512900267,Pastarpinātās pārvaldes iestāde,JURIS GAIGALS,0,0,Vispārējās izglītības iestāde,Vispārizglītojošā pamatskola,Jēkabpils novada pašvaldība,Jēkabpils novada pašvaldība,"ĀBEĻU SKOLA, ĀBEĻU PAGASTS, JĒKABPILS NOVADS, LV-5212","65236656, 29546071","abelu.psk@inbox.lv, abeludir@inbox.lv, abelupsk@jekabpilsnovads.lv",Jēkabpils novads,N,,,,,56.4175119,26.0009352
Adamovas speciālā internātpamatskola,4220901171,Pastarpinātās pārvaldes iestāde,JĀNIS PURIŅŠ,0,0,Speciālās izglītības iestāde,Speciālā pamatskola,Rēzeknes novada pašvaldība,Rēzeknes novada pašvaldība,"Adamovas internātskola, ADAMOVA, VĒRĒMU PAGASTS, RĒZEKNES NOVADS, LV-4647",64633740,adamova@saskarsme.lv,Rēzeknes novads,N,,,,,56.5611539,27.364838
Ādažu Bērnu un jaunatnes sporta skola,4371902180,Pastarpinātās pārvaldes iestāde,DAGNIJA PUĶĪTE,0,0,Profesionālās ievirzes izglītības iestāde,Sporta skola,Ādažu novada pašvaldība,Ādažu novada Dome,"GAUJAS IELA 30, ĀDAŽI, ĀDAŽU NOVADS, LV-2164",67389490,sporta.skola@inbox.lv,Ādažu novads,N,,,,,57.0786181,24.3394031
Ādažu Mākslas un mūzikas skola,4374902096,Pastarpinātās pārvaldes iestāde,INGA PATMALNIKA,0,0,Profesionālās ievirzes izglītības iestāde,Mūzikas un mākslas skola,Ādažu novada pašvaldība,Ādažu novada Dome,"GAUJAS IELA 33a, ĀDAŽI, ĀDAŽU NOVADS, LV-2164",67997780,makslu.skola@adazi.lv,Ādažu novads,N,,,,,57.0801576,24.3321607
Ādažu pirmsskolas izglītības iestāde,4301901917,Pastarpinātās pārvaldes iestāde,SANDRA BREIDAKA,0,0,Pirmsskolas izglītības iestāde,Pirmsskolas izglītības iestāde,Ādažu novada pašvaldība,Ādažu novada Dome,"PIRMĀ IELA 26A, ĀDAŽI, ĀDAŽU NOVADS, LV-2164",67997458,,Ādažu novads,N,,,,,57.0761466,24.3244114
Ādažu vidusskola,4313901280,Pastarpinātās pārvaldes iestāde,DACE DUMPE,0,0,Vispārējās izglītības iestāde,Vispārizglītojošā vidusskola,Ādažu novada pašvaldība,Ādažu novada Dome,"GAUJAS IELA 30, ĀDAŽI, ĀDAŽU NOVADS, LV-2164",67996165,vidusskola@adazi.tl.lv,Ādažu novads,N,01133301,11,3,3,57.0786181,24.3394031
Āgenskalna ģimnāzija,3516900642,Pastarpinātās pārvaldes iestāde,,0,0,Vispārējās izglītības iestāde,Ģimnāzija,Rīgas Dome,Rīgas Dome,"ĀGENSKALNA IELA 21a, KURZEMES RAJONS, RĪGA, LV-1048","67611146, 67612480, 67613178",akg@riga.lv,Rīga,J,,,,,56.9468277,24.0630393
Āgenskalna sākumskola,3511900641,Pastarpinātās pārvaldes iestāde,INĀRA KAĶĪTE,0,0,Vispārējās izglītības iestāde,Vispārizglītojošā sākumskola,Rīgas Dome,Rīgas Dome,"KANDAVAS IELA 4/1, KURZEMES RAJONS, RĪGA, LV-1083",67458430 7451258,aksk@riga.lv,Rīga,N,,,,,56.9497008,24.051265
Āgenskalna Valsts ģimnāzija,3819900703,Pastarpinātās pārvaldes iestāde,INĀRA GAILE,0,0,Vispārējās izglītības iestāde,Valsts ģimnāzija,Rīgas Dome,Rīgas Dome,"LAVĪZES IELA 2a, ZEMGALES PRIEKŠPILSĒTA, RĪGA, LV-1002",67611185 67614133,avg@riga.lv,Rīga,N,08761103,87,1,1,56.9414792,24.0731558
Aglonas bazilikas Kora skola,4276902470,Pastarpinātās pārvaldes iestāde,IEVA LAZDĀNE,0,0,Profesionālās ievirzes izglītības iestāde,Mūzikas skola,"Aglonas bazilikas draudze, Aglonas novada pašvaldība","Aglonas bazilikas draudze, Aglonas novada Dome","CIRIŠA IELA 8, AGLONA, AGLONAS PAGASTS, AGLONAS NOVADS, LV-5304",65375386,aks@aglonasbazilika.lv,Aglonas novads,N,,,,,56.1289484,27.0137436
Aglonas internātvidusskola,4213900380,Pastarpinātās pārvaldes iestāde,DIDZIS VANAGS,0,0,Vispārējās izglītības iestāde,Vispārizglītojošā vidusskola,Aglonas novada pašvaldība,Aglonas novada Dome,"RUŠONAS IELA 11, JAUNAGLONA, AGLONAS PAGASTS, AGLONAS NOVADS, LV-5304","65381247, 29109659",aglonasintgim@pvg.edu.lv,Aglonas novads,N,00181401,1,4,1,56.1651932,26.990748
Aglonas Katoļu ģimnāzija,4216800388,Juridiskā vai fiziskā persona,ANITA PLACINSKA,0,0,Vispārējās izglītības iestāde,Ģimnāzija,"""AGLONAS BAZILIKAS DRAUDZE""","""AGLONAS BAZILIKAS DRAUDZE""","ALOĪZA BROKA IELA 6, AGLONA, AGLONAS PAGASTS, AGLONAS NOVADS, LV-5304",65381110,aglonaskatgim@pvg.edu.lv,Aglonas novads,N,00151402,1,4,1,56.1221521,27.0126992
Aglonas novada pirmsskolas izglītības iestāde,4201900395,Pastarpinātās pārvaldes iestāde,VALENTĪNA MIHAILOVA,0,0,Pirmsskolas izglītības iestāde,Pirmsskolas izglītības iestāde,Aglonas novada pašvaldība,Aglonas novada Dome,"JAUDZEMU IELA 7a, AGLONA, AGLONAS PAGASTS, AGLONAS NOVADS, LV-5304",65322451,bernudarzs@aglona.lv,Aglonas novads,N,,,,,56.1212653,27.0157989
Aglonas Sporta skola,4271902716,Pastarpinātās pārvaldes iestāde,,0,0,Profesionālās ievirzes izglītības iestāde,Sporta skola,Aglonas novada pašvaldība,Aglonas novada Dome,"DAUGAVPILS IELA 6b, AGLONA, AGLONAS PAGASTS, AGLONAS NOVADS, LV-5304",65321373,aglonasvsk@pvg.edu.lv,Aglonas novads,J,,,,,56.1351156,26.9975067
Aglonas vidusskola,4213900381,Pastarpinātās pārvaldes iestāde,LIDIJA ŠATILOVA,0,0,Vispārējās izglītības iestāde,Vispārizglītojošā vidusskola,Aglonas novada pašvaldība,Aglonas novada Dome,"DAUGAVPILS IELA 6, AGLONA, AGLONAS PAGASTS, AGLONAS NOVADS, LV-5304",65321373,aglonasvsk@pvg.edu.lv,Aglonas novads,N,00131403,1,4,1,56.1351156,26.9975067
AGMA Studio,3360800811,Komercsabiedrības struktūrvienība,,0,0,Profesionālās tālākizglītības un pilnveides izglītības iestāde,Profesionālās tālākizglītības un pilnveides izglītības iestāde,"Sabiedrība ar ierobežotu atbildību ""Demo +""","Sabiedrība ar ierobežotu atbildību ""Demo +""","SPILVES IELA 2a, RĪGA, LV-1055",26382342 29667988,agma.studio@inbox.lv,Rīga,N,,,,,56.9718628,24.051173
Agra Daņiļeviča deju skola,3372802659,Komercsabiedrības struktūrvienība,,0,0,Profesionālās ievirzes izglītības iestāde,Deju skola,"Sabiedrība ar ierobežotu atbildību ""Dance""","Sabiedrība ar ierobežotu atbildību ""Dance""","BRĪVĪBAS GATVE 224, RĪGA, LV-1039",29410450,info@dzirnas.lv,Rīga,N,,,,,56.9721788,24.1642124
Agroķīmisko pētījumu centrs,134024,Komercsabiedrība,,0,0,Zinātniskā institūcija,Komercsabiedrība,Latvijas Republikas Ministru kabinets,Latvijas Republikas Ministru kabinets,"STRUKTORU IELA 14a, RĪGA, LV-1039",67552996,info@apcentrs.lv,Rīga,J,,,,,56.9719945,24.1742786
"Ainažu pirmsskolas izglītības iestāde ""Randa""",4301900541,Pastarpinātās pārvaldes iestāde,PĀRSLA PERDIJAKA,0,0,Pirmsskolas izglītības iestāde,Pirmsskolas izglītības iestāde,Salacgrīvas novada Dome,Salacgrīvas novada Dome,"VALDEMĀRA IELA 56, AINAŽI, SALACGRĪVAS NOVADS, LV-4035",64043534,,Salacgrīvas novads,N,,,,,57.859126,24.3560775
Aizgāršas pamatskola,4212900460,Pastarpinātās pārvaldes iestāde,,0,0,Vispārējās izglītības iestāde,Vispārizglītojošā pamatskola,Kārsavas novada pašvaldība,Kārsavas novada pašvaldība,"Aizgāršas pamatskola, GOLIŠEVA, GOLIŠEVAS PAGASTS, KĀRSAVAS NOVADS, LV-5704",65728019,aizgarsas.pamatskola@inbox.lv,Kārsavas novads,J,,,,,56.742231,27.8950929
Aizkalnes pamatskola,1812900362,Pastarpinātās pārvaldes iestāde,,0,0,Vispārējās izglītības iestāde,Vispārizglītojošā pamatskola,Preiļu novada Dome,Preiļu novada Dome,"RAIŅA IELA 6, AIZKALNE, AIZKALNES PAGASTS, PREIĻU NOVADS, LV-5305",65329273,aizkalnespsk@pvg.edu.lv,Preiļu novads,J,,,,,56.1999191,26.7786444
Aizkraukles 1. vidusskola,4513900974,Pastarpinātās pārvaldes iestāde,IRA BAKUĻINA,0,0,Vispārējās izglītības iestāde,Vispārizglītojošā vidusskola,Aizkraukles novada pašvaldība,Aizkraukles novada dome,"DRAUDZĪBAS KRASTMALA 5, AIZKRAUKLE, AIZKRAUKLES NOVADS, LV-5101",65122863,la1vs@inbox.lv,Aizkraukles novads,N,00233301,2,3,3,56.5983254,25.2539483
Aizkraukles arodvidusskola,4531000815,Valsts tiešās pārvaldes iestāde,JĀNIS IKAUNIEKS,0,0,Profesionālās pamata un vidējās izglītības iestāde,Profesionālās vidējās izglītības iestāde,Latvijas Republikas Ministru kabinets,Latvijas Republikas Ministru kabinets,"JAUNCELTNES IELA 21, AIZKRAUKLE, AIZKRAUKLES NOVADS, LV-5101",65123921,aizkravs@latnet.lv,Aizkraukles novads,J,,,,,56.6073098,25.2582527
Aizkraukles Mākslas skola,4575902101,Pastarpinātās pārvaldes iestāde,TAIGA KALVIŠĶE,0,0,Profesionālās ievirzes izglītības iestāde,Mākslas skola,Aizkraukles novada pašvaldība,Aizkraukles novada dome,"SPĪDOLAS IELA 1, AIZKRAUKLE, AIZKRAUKLES NOVADS, LV-5101",65123160,aizms@inbox.lv,Aizkraukles novads,N,,,,,56.5981137,25.2477941
Aizkraukles novada ģimnāzija,4516900970,Pastarpinātās pārvaldes iestāde,ALDIS LABINSKIS,0,0,Vispārējās izglītības iestāde,Ģimnāzija,Aizkraukles novada pašvaldība,Aizkraukles novada pašvaldība,"LĀČPLĒŠA IELA 21, AIZKRAUKLE, AIZKRAUKLES NOVADS, LV-5101",65122369,gimnazija@aizkraukle.lv,Aizkraukles novads,N,00251303,2,3,1,56.6003681,25.2618761
Aizkraukles novada Sporta skola,4571902205,Pastarpinātās pārvaldes iestāde,BRIGITA KRAUZE,0,0,Profesionālās ievirzes izglītības iestāde,Sporta skola,Aizkraukles novada pašvaldība,Aizkraukles novada pašvaldība,"DRAUDZĪBAS KRASTMALA 6, AIZKRAUKLE, AIZKRAUKLES NOVADS, LV-5101",65122773,sportask@inbox.lv,Aizkraukles novads,N,,,,,56.598781,25.2530246
Aizkraukles pagasta sākumskola,4511900989,Pastarpinātās pārvaldes iestāde,JANĪNA ZOLOTORENKO,0,0,Vispārējās izglītības iestāde,Vispārizglītojošā sākumskola,Aizkraukles novada pašvaldība,Aizkraukles novada dome,"KALNA IELA 6, AIZKRAUKLE, AIZKRAUKLES PAGASTS, AIZKRAUKLES NOVADS, LV-5102","65128285, 26113790",aps@aizkraukle.lv,Aizkraukles novads,N,,,,,56.6161582,25.2193378
Aizkraukles Pieaugušo izglītības un inovāciju atbalsta centrs,4560900169,Pastarpinātās pārvaldes iestāde,,0,0,Profesionālās tālākizglītības un pilnveides izglītības iestāde,Profesionālās tālākizglītības un pilnveides izglītības iestāde,Aizkraukles novada pašvaldība,Aizkraukles novada pašvaldība,"LĀČPLĒŠA IELA 1, AIZKRAUKLE, AIZKRAUKLES NOVADS, LV-5101",65122935,aizrp@apollo.lv,Aizkraukles novads,N,,,,,56.6013913,25.2533581
Aizkraukles pilsētas Bērnu un jauniešu centrs,4551902023,Pastarpinātās pārvaldes iestāde,SARMĪTE KRUGLOVA,0,0,Bērnu un jauniešu interešu izglītības iestāde,Bērnu un jauniešu interešu izglītības iestāde,Aizkraukles novada pašvaldība,Aizkraukles pilsētas Dome,"SPĪDOLAS IELA 11, AIZKRAUKLE, AIZKRAUKLES NOVADS, LV-5101","65122862,65128534",aiga.brigere@inbox.lv,Aizkraukles novads,N,,,,,56.6012994,25.2515584
"Aizkraukles pilsētas pirmsskolas izglītības iestāde ""Auseklītis""",4501901768,Pastarpinātās pārvaldes iestāde,INTA DARBIŅA,0,0,Pirmsskolas izglītības iestāde,Pirmsskolas izglītības iestāde,Aizkraukles novada pašvaldība,Aizkraukles novada dome,"SPRĪDĪŠA IELA 3, AIZKRAUKLE, AIZKRAUKLES NOVADS, LV-5101",65121105,auseklitis@aizkraukle.lv,Aizkraukles novads,N,,,,,56.6023888,25.2640335
"Aizkraukles pilsētas pirmsskolas izglītības iestāde ""Zīlīte""",4501901773,Pastarpinātās pārvaldes iestāde,,0,0,Pirmsskolas izglītības iestāde,Pirmsskolas izglītības iestāde,Aizkraukles novada pašvaldība,Aizkraukles novada dome,"BĒRZU IELA 10, AIZKRAUKLE, AIZKRAUKLES NOVADS, LV-5101",65122610,zilite@aizkraukle.lv,Aizkraukles novads,N,,,,,56.6047878,25.2562991
Aizkraukles pilsētas sākumskola,4511900990,Pastarpinātās pārvaldes iestāde,ILGA KRAVALE,0,0,Vispārējās izglītības iestāde,Vispārizglītojošā sākumskola,Aizkraukles novada pašvaldība,Aizkraukles novada dome,"RŪPNIECĪBAS IELA 10, AIZKRAUKLE, AIZKRAUKLES NOVADS, LV-5101",65122301,sakumskolai@inbox.lv,Aizkraukles novads,N,,,,,56.6000437,25.2431604
"Aizkraukles pilsētas specializētā pirmsskolas izglītības iestāde ""Saulīte""",4502901774,Pastarpinātās pārvaldes iestāde,ZIGRĪDA BEREZINA,0,0,Pirmsskolas izglītības iestāde,Speciālā pirmsskolas iestāde,Aizkraukles novada pašvaldība,Aizkraukles novada dome,"ZIEMEĻU IELA 1, AIZKRAUKLE, AIZKRAUKLES NOVADS, LV-5101","65123955, 65123642",saulite@aizkraukle.lv,Aizkraukles novads,N,,,,,56.5997814,25.2482837
Aizkraukles Profesionālā vidusskola,4531002881,Valsts tiešās pārvaldes iestāde,RUTA KRŪKLE,0,0,Profesionālās pamata un vidējās izglītības iestāde,Profesionālās vidējās izglītības iestāde,Izglītības un zinātnes ministrija,Latvijas Republikas Ministru kabinets,"JAUNCELTNES IELA 21, AIZKRAUKLE, AIZKRAUKLES NOVADS, LV-5101",65121035,aizkavs@inbox.lv,Aizkraukles novads,N,00271309,2,3,1,56.6073098,25.2582527
Aizkraukles Vakara (maiņu) vidusskola,4514900992,Pastarpinātās pārvaldes iestāde,ANDRIS ANTĀNS,0,0,Vispārējās izglītības iestāde,Vispārizglītojošā vakara (maiņu) vidusskola,Aizkraukles novada pašvaldība,Aizkraukles novada dome,"GAISMAS IELA 4a, AIZKRAUKLE, AIZKRAUKLES NOVADS, LV-5101",65121771,vakarskola@gmail.com,Aizkraukles novads,N,00241306,2,3,1,56.5992234,25.2465411
Aizpūres pamatskola,1512900458,Pašvaldība,,0,0,Vispārējās izglītības iestāde,Vispārizglītojošā pamatskola,Līdumnieku pagasta padome,Līdumnieku pagasta padome,"NIRZAS PAGASTS, LUDZAS NOVADS, LV-5719",5753745,,Ludzas novads,J,,,,,0,Didn't find exactly one placemark! (Found 2)
Aizputes Mākslas skola,4175902176,Pastarpinātās pārvaldes iestāde,ARMANDS AUSMANIS,0,0,Profesionālās ievirzes izglītības iestāde,Mākslas skola,Aizputes novada pašvaldība,Aizputes novada Dome,"ATMODAS IELA 19, AIZPUTE, AIZPUTES NOVADS, LV-3456",63448462,,Aizputes novads,N,,,,,56.7188407,21.6050698
Aizputes Mūzikas skola,4176902157,Pastarpinātās pārvaldes iestāde,ARTA KANGIZERE,0,0,Profesionālās ievirzes izglītības iestāde,Mūzikas skola,Aizputes novada pašvaldība,Aizputes novada Dome,"JĀŅA IELA 12, AIZPUTE, AIZPUTES NOVADS, LV-3456",63448157,muzikasskola@apollo.lv,Aizputes novads,N,,,,,56.7209699,21.6048974
Aizputes novada Neklātienes vidusskola,4115901036,Pastarpinātās pārvaldes iestāde,DACE POLE,0,0,Vispārējās izglītības iestāde,Neklātienes vidusskola,Aizputes novada pašvaldība,Aizputes novada Dome,"ZIEDU IELA 7, AIZPUTE, AIZPUTES NOVADS, LV-3456",26609442,metodika@inbox.lv,Aizputes novads,N,,,,,56.720246,21.6102556
Aizputes novada Skolēnu jaunrades centrs,4151902031,Pastarpinātās pārvaldes iestāde,,0,0,Bērnu un jauniešu interešu izglītības iestāde,Bērnu un jauniešu interešu izglītības iestāde,Aizputes novada pašvaldība,Aizputes novada Dome,"SKOLAS IELA 1, AIZPUTE, AIZPUTES NOVADS, LV-3456",63449456,sjca@inbox.lv,Aizputes novads,N,,,,,56.7225786,21.5983647
Aizputes pagasta pamatskola,4112901031,Pastarpinātās pārvaldes iestāde,ANDRIS JANSONS,0,0,Vispārējās izglītības iestāde,Vispārizglītojošā pamatskola,Aizputes novada pašvaldība,Aizputes novada Dome,"Skola, ROKASBIRZE, AIZPUTES PAGASTS, AIZPUTES NOVADS, LV-3456",63453201,pamatskola@aizpute.lv,Aizputes novads,N,,,,,56.7124277,21.5546937
"Aizputes pirmsskolas izglītības iestāde ""Pasaciņa""",4101901761,Pastarpinātās pārvaldes iestāde,ANTRA APINE,0,0,Pirmsskolas izglītības iestāde,Pirmsskolas izglītības iestāde,Aizputes novada pašvaldība,Aizputes novada Dome,"ZVAIGŽŅU IELA 6, AIZPUTE, AIZPUTES NOVADS, LV-3456",63449087,aizpute.pasacina@inbox.lv,Aizputes novads,N,,,,,56.7208193,21.6068848
Aizputes vidusskola,4113901044,Pastarpinātās pārvaldes iestāde,GUNTA VĪDNERE,0,0,Vispārējās izglītības iestāde,Vispārizglītojošā vidusskola,Aizputes novada pašvaldība,Aizputes novada Dome,"ZIEDU IELA 7, AIZPUTE, AIZPUTES NOVADS, LV-3456",63448251,vidusskola@aizpute.lv,Aizputes novads,N,00331306,3,3,1,56.720246,21.6102556
Aizstrautnieku sākumskola,0711900864,Pašvaldība,,0,0,Vispārējās izglītības iestāde,Vispārizglītojošā sākumskola,Dobeles pagasta padome,Dobeles pagasta padome,"DOBELES PAGASTS, DOBELES NOVADS, LV-3705",3764519,,Dobeles novads,J,,,,,0,Didn't find exactly one placemark! (Found 3)
Aizupes pamatskola,4512900847,Pastarpinātās pārvaldes iestāde,ZANE LANGE,0,0,Vispārējās izglītības iestāde,Vispārizglītojošā pamatskola,Jelgavas novada pašvaldība,Jelgavas novada pašvaldība,"Aizupes pamatskola, TUŠĶI, LĪVBĒRZES PAGASTS, JELGAVAS NOVADS, LV-3003",63032337,aizupespsk@jelgavasnovads.lv,Jelgavas novads,N,,,,,56.652129,23.6293629
"Akciju sabiedrības ""RĪGAS ELEKTROMAŠĪNBŪVES RŪPNĪCA"" Zinātniski pētnieciskā izmēģinājuma centrs",444157,Komercsabiedrības struktūrvienība,ALEKSANDRS MESŅAJEVS,0,0,Zinātniskā institūcija,Komercsabiedrība,"Akciju sabiedrības ""RĪGAS ELEKTROMAŠĪNBŪVES RŪPNĪCA""","Akciju sabiedrības ""RĪGAS ELEKTROMAŠĪNBŪVES RŪPNĪCA""","GANĪBU DAMBIS 31, RĪGA, LV-1005",27000892,ic@rer.lv,Rīga,N,,,,,56.9918656,24.1213769
Aknīstes Bērnu un jauniešu centrs,4551901262,Pastarpinātās pārvaldes iestāde,EVIJA ĶIĶĒNA,0,0,Bērnu un jauniešu interešu izglītības iestāde,Bērnu un jauniešu interešu izglītības iestāde,Aknīstes novada pašvaldība,Aknīstes novada pašvaldība,"SKOLAS IELA 1a, AKNĪSTE, AKNĪSTES NOVADS, LV-5208","65266339, 28349251",akn.bjc.evija@inbox.lv,Aknīstes novads,N,,,,,56.162442,25.7454161
"Aknīstes novada pašvaldības pirmsskolas izglītības iestāde ""Bitīte""",4501900305,Pastarpinātās pārvaldes iestāde,RIMA BLUDZE,0,0,Pirmsskolas izglītības iestāde,Pirmsskolas izglītības iestāde,Aknīstes novada pašvaldība,Aknīstes novada pašvaldība,"SKOLAS IELA 16a, AKNĪSTE, AKNĪSTES NOVADS, LV-5208",65236603,sandrapliksa@tvnet.lv,Aknīstes novads,N,,,,,56.1635496,25.7381691
Aknīstes vidusskola,4513900255,Pastarpinātās pārvaldes iestāde,AIJA VOITIŠKE,0,0,Vispārējās izglītības iestāde,Vispārizglītojošā vidusskola,Aknīstes novada pašvaldība,Aknīstes novada pašvaldība,"SKOLAS IELA 19, AKNĪSTE, AKNĪSTES NOVADS, LV-5208","65266221, 29325703",aknistevs@gmail.com,Aknīstes novads,N,00431301,4,3,1,56.163335,25.7360038
Aleksandrovas internātpamatskola,4222900579,Pastarpinātās pārvaldes iestāde,ANITA MALINOVSKA,0,0,Speciālās izglītības iestāde,Speciālā pamatskola,Dagdas novada pašvaldība,Dagdas novada pašvaldība,"""Aleksandrovas skola"", ALEKSANDROVA, KONSTANTINOVAS PAGASTS, DAGDAS NOVADS, LV-5680",65621023,aleksandrova-skola@inbox.lv,Dagdas novads,N,,,,,56.082726,27.4272609
Alfrēda Kalniņa Cēsu Mūzikas vidusskola,4431301248,Valsts tiešās pārvaldes iestāde,,0,0,Profesionālās pamata un vidējās izglītības iestāde,Profesionālās vidējās izglītības iestāde,Kultūras ministrija,Latvijas Republikas Ministru kabinets,"RAUNAS IELA 12 - 2, CĒSIS, CĒSU NOVADS, LV-4101",64125385,akcmv@akcmv.gov.lv,Cēsu novads,N,02271302,22,3,1,0,Didn't find exactly one placemark! (Found 2)
Alfrēda Kraukļa VEF basketbola skola,3370902215,Pastarpinātās pārvaldes iestāde,,0,0,Profesionālās izglītības iestāde,Sporta skola,Rīgas Dome,Rīgas Dome,"AIZKRAUKLES IELA 14, RĪGA, LV-1006",67552918,vefbsk@riga.lv,Rīga,J,,,,,56.9765136,24.1850262
Alises Rozes mācību centrs,4460800634,Komercsabiedrības struktūrvienība,,0,0,Pieaugušo neformālās izglītības iestāde,Pieaugušo neformālās izglītības iestāde,"Sabiedrība ar ierobežotu atbildību ""VMVK""","Sabiedrība ar ierobežotu atbildību ""VMVK""","CĒSU IELA 8, RAUNA, RAUNAS PAGASTS, RAUNAS NOVADS, LV-4131","29407834, 27016634",maksla@arstudio.lv,Raunas novads,N,,,,,57.3301897,25.6053498
Allažu pamatskola,4312901109,Pastarpinātās pārvaldes iestāde,SANDRA TUKIŠA,0,0,Vispārējās izglītības iestāde,Vispārizglītojošā pamatskola,Siguldas novada Dome,Siguldas novada Dome,"""Allažu pamatskola un sporta centrs"", ALLAŽI, ALLAŽU PAGASTS, SIGULDAS NOVADS, LV-2154","67970954, 67970949",allazu.pamatskola@sigulda.lv,Siguldas novads,N,,,,,57.056256,24.8473459
Alojas Ausekļa vidusskola,4313900157,Pastarpinātās pārvaldes iestāde,INESE MĒTRIŅA,0,0,Vispārējās izglītības iestāde,Vispārizglītojošā vidusskola,Alojas novada pašvaldība,Alojas novada Dome,"AUSEKĻA IELA 1, ALOJA, ALOJAS NOVADS, LV-4064",64031201,alojas.vsk@aloja.lv,Alojas novads,N,00531301,5,3,1,57.7645752,24.876664
Alojas Mūzikas un mākslas skola,4374902295,Pastarpinātās pārvaldes iestāde,LAILA ULMANE,0,0,Profesionālās ievirzes izglītības iestāde,Mūzikas un mākslas skola,Alojas novada pašvaldība,Alojas novada Dome,"JŪRAS IELA 39a, ALOJA, ALOJAS NOVADS, LV-4064","64031468, 64031235",alojamms@inbox.lv,Alojas novads,N,,,,,57.7675812,24.8720275
"Alojas pilsētas pirmsskolas izglītības iestāde ""Auseklītis""",4301900542,Pastarpinātās pārvaldes iestāde,MAIJA ŠEMBELE,0,1,Pirmsskolas izglītības iestāde,Pirmsskolas izglītības iestāde,Alojas novada pašvaldība,Alojas novada Dome,"PARKA IELA 13, ALOJA, ALOJAS NOVADS, LV-4064",64031258,maija.sembele@inbox.lv,Alojas novads,N,,,,,57.7721711,24.8682155
Alsungas Mūzikas skola,4176902156,Pastarpinātās pārvaldes iestāde,JANETA KRISTAPSONE,0,0,Profesionālās ievirzes izglītības iestāde,Mūzikas skola,Alsungas novada pašvaldība,Alsungas novada Dome,"SKOLAS IELA 11, ALSUNGA, ALSUNGAS NOVADS, LV-3306",63351450,alsungasmuzikaskola@apollo.lv,Alsungas novads,N,,,,,56.9782537,21.5684935
"Alsungas pirmsskolas izglītības iestāde ""Miķelītis""",4101901410,Pastarpinātās pārvaldes iestāde,ALETA LIPSNE,0,0,Pirmsskolas izglītības iestāde,Pirmsskolas izglītības iestāde,Alsungas novada pašvaldība,Alsungas novada Dome,"SKOLAS IELA 16A, ALSUNGA, ALSUNGAS NOVADS, LV-3306",63351382,alsungasbn@inbox.lv,Alsungas novads,N,,,,,56.9789056,21.5632009
Alsungas vidusskola,4113901196,Pastarpinātās pārvaldes iestāde,LIJA BAUMANE,0,0,Vispārējās izglītības iestāde,Vispārizglītojošā vidusskola,Alsungas novada pašvaldība,Alsungas novada Dome,"SKOLAS IELA 11, ALSUNGA, ALSUNGAS NOVADS, LV-3306",63351347,vidusskola@alsunga.lv,Alsungas novads,N,00631301,6,3,1,56.9782537,21.5684935
Alsviķu arodskola,4432002542,Valsts tiešās pārvaldes iestāde,,0,0,Profesionālās pamata un vidējās izglītības iestāde,Arodizglītības iestāde,Izglītības un zinātnes ministrija,Latvijas Republikas Ministru kabinets,"""Alsviķu arodskola"", ALSVIĶI, ALSVIĶU PAGASTS, ALŪKSNES NOVADS, LV-4333","64307132, 64307131",arodskola@alsviki.lv,Alūksnes novads,N,,,,,57.4448189,26.940952
"Alsviķu pirmsskolas izglītības iestāde ""Saulīte""",4401901484,Pastarpinātās pārvaldes iestāde,EVIJA KUBULNIECE,0,0,Pirmsskolas izglītības iestāde,Pirmsskolas izglītības iestāde,Alūksnes novada pašvaldība,Alūksnes novada pašvaldība,"Saulīte, ALSVIĶI, ALSVIĶU PAGASTS, ALŪKSNES NOVADS, LV-4333",64354145,saulite@aluksne.lv,Alūksnes novads,N,,,,,57.4448189,26.940952
Alsviķu Profesionālā skola,4431002542,Valsts tiešās pārvaldes iestāde,ANITA PALMA,0,0,Profesionālās pamata un vidējās izglītības iestāde,Profesionālās vidējās izglītības iestāde,Izglītības un zinātnes ministrija,Latvijas Republikas Ministru kabinets,"ALSVIĶU PROFESIONĀLĀ SKOLA, ALSVIĶI, ALSVIĶU PAGASTS, ALŪKSNES NOVADS, LV-4333","64307132, 64307131",profesionalaskola@alsviki.lv,Alūksnes novads,J,,,,,57.4448189,26.940952
Alūksnes Bērnu un jauniešu centrs,4451902238,Pastarpinātās pārvaldes iestāde,EVA AIZUPE,0,0,Bērnu un jauniešu interešu izglītības iestāde,Bērnu un jauniešu interešu izglītības iestāde,Alūksnes novada pašvaldība,Alūksnes novada pašvaldība,"DĀRZA IELA 8a, ALŪKSNE, ALŪKSNES NOVADS, LV-4301","64322402, 29190552",abjc@inbox.lv,Alūksnes novads,N,,,,,0,Didn't find exactly one placemark! (Found 2)
Alūksnes Mākslas skola,4475902237,Pastarpinātās pārvaldes iestāde,OJĀRS VĒLIŅŠ,0,0,Profesionālās ievirzes izglītības iestāde,Mākslas skola,Alūksnes novada pašvaldība,Alūksnes novada pašvaldība,"OJĀRA VĀCIEŠA IELA 2, ALŪKSNE, ALŪKSNES NOVADS, LV-4301","64322433, 29298964",makslasskola@aluksne.lv,Alūksnes novads,N,,,,,57.4261304,27.0525026
Alūksnes Mūzikas skola,4476902334,Pastarpinātās pārvaldes iestāde,GUNTA BOŠA,0,0,Profesionālās ievirzes izglītības iestāde,Mūzikas skola,Alūksnes novada pašvaldība,Alūksnes novada pašvaldība,"JĀŅKALNA IELA 38, ALŪKSNE, ALŪKSNES NOVADS, LV-4301","64381440, 26137177",muzikas_skola@aluksne.lv,Alūksnes novads,N,,,,,57.4163599,27.0442403
Alūksnes novada Jaunannas pamatskola,4412900913,Pastarpinātās pārvaldes iestāde,,0,0,Vispārējās izglītības iestāde,Vispārizglītojošā pamatskola,Alūksnes novada pašvaldība,Alūksnes novada pašvaldība,"Zvaniņi, JAUNANNAS PAGASTS, ALŪKSNES NOVADS, LV-4340",26489927,direktors.jan@aluksne.edu.lv,Alūksnes novads,J,,,,,57.2917901,27.1083426
Alūksnes novada vidusskola,4413902870,Pastarpinātās pārvaldes iestāde,ILZE LĪVIŅA,0,0,Vispārējās izglītības iestāde,Vispārizglītojošā vidusskola,Alūksnes novada pašvaldība,Alūksnes novada pašvaldība,"KANAVIŅU IELA 14, ALŪKSNE, ALŪKSNES NOVADS, LV-4301",64381669,sekret.alvsk@aluksne.edu.lv,Alūksnes novads,N,00731323,7,3,1,57.4138358,27.0579888
Alūksnes pilsētas Bērnu un jaunatnes sporta skola,4471902196,Pastarpinātās pārvaldes iestāde,LĪGA TOMSONE,0,0,Profesionālās ievirzes izglītības iestāde,Sporta skola,Alūksnes novada pašvaldība,Alūksnes novada pašvaldība,"LIELĀ EZERA IELA 24a, ALŪKSNE, ALŪKSNES NOVADS, LV-4301",64322654,albjss@aluksne.lv,Alūksnes novads,N,,,,,57.4212163,27.0442297
Alūksnes pilsētas sākumskola,4411900920,Pastarpinātās pārvaldes iestāde,UVA GRENCIONE,0,0,Vispārējās izglītības iestāde,Vispārizglītojošā sākumskola,Alūksnes novada pašvaldība,Alūksnes novada pašvaldība,"LIELĀ EZERA IELA 26, ALŪKSNE, ALŪKSNES NOVADS, LV-4301",64324403,sakumskola@aluksne.lv,Alūksnes novads,N,,,,,57.4208591,27.0430172
"Alūksnes pirmsskolas izglītības iestāde ""Cālis""",4402901487,Pastarpinātās pārvaldes iestāde,LĪGA KAULA,0,0,Pirmsskolas izglītības iestāde,Speciālā pirmsskolas iestāde,Alūksnes novada pašvaldība,Alūksnes novada pašvaldība,"LIELĀ EZERA IELA 7, ALŪKSNE, ALŪKSNES NOVADS, LV-4301",64322143,calis@aluksne.lv,Alūksnes novads,N,,,,,57.4218948,27.0481346
"Alūksnes pirmsskolas izglītības iestāde ""Pienenīte""",4401901486,Pastarpinātās pārvaldes iestāde,ĀRIJA DRIŅINA,0,0,Pirmsskolas izglītības iestāde,Pirmsskolas izglītības iestāde,Alūksnes novada pašvaldība,Alūksnes novada pašvaldība,"HELĒNAS IELA 32, ALŪKSNE, ALŪKSNES NOVADS, LV-4301",64322530,pienenite@aluksne.lv,Alūksnes novads,N,,,,,57.4240515,27.0414661
"Alūksnes pirmsskolas izglītības iestāde ""Sprīdītis""",4401901481,Pastarpinātās pārvaldes iestāde,MODRĪTE VOSKA,0,0,Pirmsskolas izglītības iestāde,Pirmsskolas izglītības iestāde,Alūksnes novada pašvaldība,Alūksnes novada pašvaldība,"RAIŅA BULVĀRIS 5, ALŪKSNE, ALŪKSNES NOVADS, LV-4301",64323910,spriditis@aluksne.lv,Alūksnes novads,N,,,,,57.4179442,27.0498025
Alūksnes Vakara (maiņu) un neklātienes vidusskola,4414900922,Pastarpinātās pārvaldes iestāde,,0,0,Vispārējās izglītības iestāde,Vispārizglītojošā vakara (maiņu) vidusskola,Alūksnes novada pašvaldība,Alūksnes novada pašvaldība,"JĀŅKALNA IELA 38, ALŪKSNE, ALŪKSNES NOVADS, LV-4301",64324234,direktore.vak@aluksne.edu.lv,Alūksnes novads,J,,,,,57.4163599,27.0442403
Alūksnes vidusskola,4413900901,Pastarpinātās pārvaldes iestāde,,0,0,Vispārējās izglītības iestāde,Vispārizglītojošā vidusskola,Alūksnes novada pašvaldība,Alūksnes novada pašvaldība,"KANAVIŅU IELA 14, ALŪKSNE, ALŪKSNES NOVADS, LV-4301","64381669, 64381670",sekret.alvsk@ aluksne.edu.lv,Alūksnes novads,J,,,,,57.4138358,27.0579888
Amatas novada Drabešu sākumskola,4411900344,Pastarpinātās pārvaldes iestāde,LAILA RAISKA,0,0,Vispārējās izglītības iestāde,Vispārizglītojošā sākumskola,Amatas novada pašvaldība,Amatas novada pašvaldība,"PARKA IELA 1, LĪVI, DRABEŠU PAGASTS, AMATAS NOVADS, LV-4101",64157275,drabesusakumskola@inbox.lv,Amatas novads,N,,,,,57.2801627,25.2475643
Amatas novada mūzikas un mākslas skola,4474902103,Pastarpinātās pārvaldes iestāde,MARIKA BUSOTE-UZULIŅA,0,0,Profesionālās ievirzes izglītības iestāde,Mūzikas un mākslas skola,Amatas novada pašvaldība,Amatas novada pašvaldība,"""Pagasta ēka"", NĪTAURE, NĪTAURES PAGASTS, AMATAS NOVADS, LV-4112","64164316, 27749775",nitauresms@inbox.lv,Amatas novads,N,,,,,57.0702957,25.1938843
"Amatas novada Nītaures pirmsskolas izglītības iestāde ""Taurīte""",4401901698,Pastarpinātās pārvaldes iestāde,DACE LEZDIŅA,0,0,Pirmsskolas izglītības iestāde,Pirmsskolas izglītības iestāde,Amatas novada pašvaldība,Amatas novada pašvaldība,"""Dārziņi"", NĪTAURE, NĪTAURES PAGASTS, AMATAS NOVADS, LV-4112",64164264,npii-taurite@inbox.lv,Amatas novads,N,,,,,57.064273,25.190475
"Amatas novada pirmsskolas izglītības iestāde ""Kastanītis""",4401901699,Pastarpinātās pārvaldes iestāde,IEVA DĀRZIŅA,0,0,Pirmsskolas izglītības iestāde,Pirmsskolas izglītības iestāde,Amatas novada pašvaldība,Amatas novada pašvaldība,"Amatas novada pirmsskolas izglītības iestāde Kastanītis, ĢIKŠI, AMATAS PAGASTS, AMATAS NOVADS, LV-4141","64129398, 64129403",piikastanitis@inbox.lv,Amatas novads,N,,,,,57.1729389,25.3237389
